Country,AccentCity,Population,Latitude,Longitude
Andorra,Andorra la Vella,20430,42.5,1.5166667
Andorra,Canillo,3292,42.5666667,1.6
Andorra,Encamp,11224,42.5333333,1.5833333
Andorra,La Massana,7211,42.55,1.5166667
Andorra,Les Escaldes,15854,42.5,1.5333333
Andorra,Ordino,2553,42.55,1.5333333
Andorra,Sant Julià de Lòria,8020,42.4666667,1.5
United Arab Emirates,Abu Dhabi,603687,24.466667,54.366667
United Arab Emirates,Dubai,1137376,25.258172,55.304717
United Arab Emirates,Sharjah,543942,25.35731,55.403304
Afghanistan,Acin,15098,34.082481,70.668152
Afghanistan,Anar Darreh,10023,32.758698,61.653969
Afghanistan,Andarab,27034,35.633484,69.260195
Afghanistan,Asadabad,48400,34.873113,71.14697
Afghanistan,Asmar,15708,35.033328,71.358087
Afghanistan,Aybak,47877,36.26468,68.015512
Afghanistan,Azrow,12526,34.173553,69.645728
Afghanistan,Baglan,108481,36.130684,68.708286
Afghanistan,Bagrami,30256,34.493761,69.274274
Afghanistan,Baraki Barak,22305,33.9675,68.948611
Afghanistan,Cah Ab,23424,37.397734,69.814644
Afghanistan,Carikar,53693,35.016585,69.174011
Afghanistan,Ciras,12778,35.416737,65.982341
Afghanistan,Dawlatabad,13603,36.432589,64.920713
Afghanistan,Dawlatabad,17674,36.98782,66.82066
Afghanistan,Deh Rawud,25683,32.624131,65.459659
Afghanistan,Eskasem,12120,36.706932,71.570658
Afghanistan,Farah,43574,32.374508,62.116383
Afghanistan,Gardan Diwal,6815,34.508977,68.260739
Afghanistan,Gardez,103732,33.597439,69.225922
Afghanistan,Gazni,143049,33.550833,68.4225
Afghanistan,Geresk,43638,31.820894,64.570048
Afghanistan,Herat,272880,34.348167,62.199673
Afghanistan,Jalalabad,200389,34.426468,70.45153
Afghanistan,Jurm,12121,36.864768,70.834207
Afghanistan,Kabul,3043589,34.516667,69.183333
Afghanistan,Kholm,64954,36.697362,67.698255
Afghanistan,Khowst,96246,33.339512,69.92041
Afghanistan,Kuhestan,12087,34.653889,61.197778
Afghanistan,Kusk,16952,33.29565,61.952206
Afghanistan,Lar Gerd,11635,35.489361,66.664088
Afghanistan,Mehtar Lam,17350,34.671389,70.209444
Afghanistan,Mirabad,14160,30.436244,61.838304
Afghanistan,Nahrin,22389,36.064904,69.13343
Afghanistan,Nuristan,17072,34.95,70.4
Afghanistan,Orgun,10665,32.901111,69.152798
Afghanistan,Pagman,49173,34.5875,68.953333
Afghanistan,Panjab,13471,34.387949,67.023273
Afghanistan,Qandahar,391230,31.613323,65.710126
Afghanistan,Qarchi Gak,8942,37.039988,66.788912
Afghanistan,Qarqin,15023,37.404464,66.074375
Afghanistan,Qunduz,161943,36.728955,68.857001
Afghanistan,Rostaq,25644,37.126035,69.83045
Afghanistan,Rudbar,11034,30.15,62.6
Afghanistan,Sahrak,15967,34.107375,64.305199
Afghanistan,Sangin,13579,32.072752,64.835903
Afghanistan,Sar-e Pul,52138,36.215443,65.932487
Afghanistan,Sharan,7368,33.146667,68.791667
Afghanistan,Shibarghan,55658,36.667567,65.752904
Afghanistan,Sindand,29273,33.302944,62.1474
Afghanistan,Tagab,6400,34.855007,69.64917
Afghanistan,Taloqan,64275,36.734133,69.533559
Afghanistan,Taywarah,14398,33.521176,64.421156
Afghanistan,Tir Pol,6979,34.594307,61.268951
Afghanistan,Tokzar,12021,35.948308,66.42132
Afghanistan,Uruzgan,13400,32.927751,66.632534
Afghanistan,Zaranj,33894,30.966667,61.883333
Antigua and Barbuda,All Saints,2526,17.05,-61.8
Antigua and Barbuda,Carlisle,831,17.1333333,-61.8
Antigua and Barbuda,Codrington,682,17.6333333,-61.8333333
Antigua and Barbuda,Freetown,623,17.05,-61.7
Antigua and Barbuda,Liberta,1668,17.0333333,-61.7833333
Antigua and Barbuda,Old Road,623,17.0166667,-61.8333333
Antigua and Barbuda,Parham,969,17.0833333,-61.7666667
Antigua and Barbuda,Swetes,727,17.05,-61.8
Anguilla,The Valley,1379,18.2166667,-63.05
Albania,Bajram Curri,7967,42.3572222,20.0730556
Albania,Ballsh,10361,40.5988889,19.7347222
Albania,Berat,47606,40.7058333,19.9522222
Albania,Bilisht,7114,40.6275,20.99
Albania,Bulqizë,11212,41.4916667,20.2219444
Albania,Burrel,15539,41.6102778,20.0088889
Albania,Cërrik,14269,41.0316667,19.9758333
Albania,Çorovodë,14046,40.5041667,20.2272222
Albania,Delvinë,3916,39.9511111,20.0977778
Albania,Durrës,122034,41.3230556,19.4413889
Albania,Elbasan,100903,41.1125,20.0822222
Albania,Ersekë,7890,40.3377778,20.6788889
Albania,Fier,59719,40.7238889,19.5561111
Albania,Fierzë,742,42.2647222,20.0269444
Albania,Fierzë,742,42.2605556,20.0169444
Albania,Fushë-Arrëz,2438,42.0622222,20.0166667
Albania,Fushë-Krujë,10458,41.4783333,19.7177778
Albania,Gjirokastër,23437,40.0758333,20.1388889
Albania,Gramsh,11556,40.8697222,20.1844444
Albania,Himarë,4596,40.1016667,19.7447222
Albania,Kamzë,11026,41.3816667,19.7602778
Albania,Kavajë,29354,41.1855556,19.5569444
Albania,Këlcyrë,2486,40.3130556,20.1894444
Albania,Kërrabë,1177,41.2155556,19.9713889
Albania,Klos,683,41.4844444,20.1080556
Albania,Konispol,1349,39.6588889,20.1813889
Albania,Koplik,4078,42.2136111,19.4363889
Albania,Korçë,58259,40.6186111,20.7808333
Albania,Krastë,1168,41.4225,20.205
Albania,Krujë,21286,41.5091667,19.7927778
Albania,Kuçovë,18166,40.8002778,19.9166667
Albania,Kukës,17972,42.0769444,20.4219444
Albania,Kurbnesh,1429,41.7797222,20.0836111
Albania,Laç,24825,41.6355556,19.7130556
Albania,Leskovik,2655,40.1513889,20.5972222
Albania,Lezhë,18695,41.7836111,19.6436111
Albania,Libohovë,3651,40.0311111,20.2630556
Albania,Librazhd,12691,41.1794444,20.315
Albania,Lushnjë,41423,40.9419444,19.705
Albania,Maliq,3735,40.7058333,20.6997222
Albania,Mamurras,8282,41.5775,19.6922222
Albania,Memaliaj,4951,40.3458333,19.9791667
Albania,Milot,2157,41.6802778,19.7244444
Albania,Orikum,2604,40.3252778,19.4713889
Albania,Patos,22679,40.6833333,19.6194444
Albania,Peqin,7513,41.0461111,19.7511111
Albania,Përmet,10686,40.2336111,20.3516667
Albania,Përrenjas,4015,41.0730556,20.5488889
Albania,Peshkopi,15261,41.685,20.4288889
Albania,Pogradec,25758,40.9025,20.6525
Albania,Poliçan,10663,40.6122222,20.0980556
Albania,Pukë,6495,42.0444444,19.8997222
Albania,Roskovec,6657,40.7375,19.7022222
Albania,Rrëshen,10064,41.7675,19.8755556
Albania,Rrogozhinë,5620,41.0763889,19.6652778
Albania,Rubik,2332,41.7744444,19.7861111
Albania,Sarandë,15147,39.8755556,20.0052778
Albania,Selenicë,6912,40.5305556,19.6358333
Albania,Shëngjin,2698,41.8136111,19.5938889
Albania,Shijak,14138,41.3455556,19.5672222
Albania,Shkodër,89102,42.0675,19.5130556
Albania,Tepelenë,11955,40.2958333,20.0191667
Albania,Tirana,374801,41.3275,19.8188889
Albania,Ulzë,600,41.6827778,19.8933333
Albania,Vlorë,89528,40.4666667,19.4897222
Albania,Vorë,4973,41.3908333,19.655
Armenia,Abovyan,1379,40.0488889,44.5475
Armenia,Abovyan,35677,40.2691667,44.6244444
Armenia,Agarakadzor,1195,39.7363889,45.3455556
Armenia,Agarak,1575,40.3077778,44.2847222
Armenia,Agarak,1278,41.0105556,44.4675
Armenia,Agarak,4707,39.2038889,46.5472222
Armenia,Aghavnadzor,1252,40.5841667,44.6913889
Armenia,Aghavnadzor,1925,39.7836111,45.2280556
Armenia,Aghavnatun,2913,40.2336111,44.2513889
Armenia,Akhuryan,7672,40.7813889,43.8963889
Armenia,Aknalich,2654,40.1430556,44.1483333
Armenia,Aknashen,1362,40.0958333,44.2861111
Armenia,Alaverdi,13186,41.1305556,44.6519444
Armenia,Amasia,1675,40.9466667,43.7813889
Armenia,Amberd,1267,40.2416667,44.2727778
Armenia,Anushavan,1532,40.6419444,43.9822222
Armenia,Apaga,1634,40.0961111,44.2511111
Armenia,Aparan,5670,40.5961111,44.3536111
Armenia,Aragats,2952,40.3330556,43.6580556
Armenia,Aragats,5092,40.2183333,44.2327778
Armenia,Aragyukh,999,40.4025,44.5436111
Armenia,Aramus,3214,40.2511111,44.6630556
Armenia,Arapi,1738,40.7797222,43.8005556
Armenia,Ararat,6554,39.8094444,44.7144444
Armenia,Arazap,1373,40.0427778,44.1458333
Armenia,Archis,1235,41.1641667,44.8725
Armenia,Areni,1718,39.7208333,45.1838889
Armenia,Arevabuyr,1041,40.0361111,44.4688889
Armenia,Arevashat,1403,40.1416667,44.3708333
Armenia,Arevashogh,2435,40.8613889,44.2727778
Armenia,Arevik,2455,40.1005556,44.0969444
Armenia,Arevik,1522,40.7361111,43.8927778
Armenia,Arevshat,2089,40.0391667,44.5416667
Armenia,Arevshat,1623,40.6486111,44.0444444
Armenia,Argavand,1703,40.1580556,44.44
Armenia,Argavand,2047,40.0608333,44.0952778
Armenia,Argel,2528,40.3794444,44.5994444
Armenia,Armash,2434,39.7666667,44.8083333
Armenia,Armavir,2752,40.0897222,44.0483333
Armenia,Arshaluys,3808,40.1688889,44.2141667
Armenia,Artashat,20562,39.9538889,44.5505556
Armenia,Arteni,3086,40.2983333,43.7541667
Armenia,Artimet,1501,40.1513889,44.2663889
Armenia,Artsvaberd,3193,40.8336111,45.4711111
Armenia,Artsvanist,2819,40.1544444,45.5022222
Armenia,Arzakan,2660,40.4494444,44.6063889
Armenia,Arzni,2244,40.2963889,44.5958333
Armenia,Ashnak,1131,40.3275,43.9166667
Armenia,Ashtarak,18779,40.3016667,44.3591667
Armenia,Astghadzor,3520,40.1238889,45.3566667
Armenia,Avshar,4215,39.8405556,44.6836111
Armenia,Aygavan,3758,39.8647222,44.6702778
Armenia,Aygedzor,2535,39.4627778,46.4152778
Armenia,Aygehovit,2888,40.9744444,45.2519444
Armenia,Aygek,1095,40.1886111,44.3833333
Armenia,Aygepat,1349,39.95,44.6
Armenia,Aygeshat,1358,40.2355556,44.2866667
Armenia,Aygeshat,1606,40.0666667,44.0666667
Armenia,Aygestan,2431,40.0030556,44.5575
Armenia,Aygezard,3192,39.9458333,44.6088889
Armenia,Aygut,997,40.6841667,45.1730556
Armenia,Ayrum,2174,41.195,44.8925
Armenia,Ayrum,2174,41.1716667,44.8191667
Armenia,Azatamut,1850,40.9758333,45.1980556
Armenia,Azatan,4448,40.7238889,43.8205556
Armenia,Azatavan,2886,39.9833333,44.5
Armenia,Azatavan,2886,40.1333333,44.0666667
Armenia,Baghramyan,1690,40.1908333,43.8494444
Armenia,Bagratashen,3024,41.2458333,44.8211111
Armenia,Balahovit,2982,40.2536111,44.6038889
Armenia,Bambakashat,3089,40.1144444,44.0122222
Armenia,Bardzrashen,1273,40.0852778,44.5786111
Armenia,Bazum,1114,40.8680556,44.4455556
Armenia,Berdavan,3150,41.2027778,45.0033333
Armenia,Berd,8374,40.8808333,45.3916667
Armenia,Brnakot,1912,39.4969444,45.9730556
Armenia,Brun,1028,39.5338889,46.3030556
Armenia,Buzhakan,1678,40.4552778,44.5205556
Armenia,Byurakan,3902,40.3413889,44.2736111
Armenia,Byuravan,1228,40.0161111,44.5186111
Armenia,Byureghavan,6972,40.3147222,44.5936111
Armenia,Chambarak,6153,40.5952778,45.3475
Armenia,Chochkan,1740,41.1861111,44.8313889
Armenia,Dalar,2504,39.9669444,44.5363889
Armenia,Dalarik,3080,40.2183333,43.8602778
Armenia,Darakert,2325,40.1058333,44.4138889
Armenia,Darpas,1785,40.8380556,44.4233333
Armenia,Dashtavan,1762,40.1016667,44.3905556
Armenia,Ddmashen,2157,40.5719444,44.8122222
Armenia,Dilijan,13480,40.7408333,44.8630556
Armenia,Dimitrov,1212,40.0080556,44.4880556
Armenia,Doghs,1186,40.2227778,44.2716667
Armenia,Drakhtik,1016,40.5688889,45.2319444
Armenia,Dsegh,2484,40.9633333,44.6516667
Armenia,Dvin,2795,40.02,44.5852778
Armenia,Dzitankov,1162,40.5155556,43.8133333
Armenia,Dzoraghbyur,2011,40.205,44.6430556
Armenia,Dzoragyukh,3570,40.1752778,45.175
Armenia,Fantan,1019,40.3941667,44.685
Armenia,Fioletovo,1264,40.7247222,44.7138889
Armenia,Gagarin,1305,40.5369444,44.8577778
Armenia,Gandzak,3841,40.3147222,45.1113889
Armenia,Garni,6827,40.1194444,44.7230556
Armenia,Gavar,21681,40.3588889,45.1266667
Armenia,Gay,3309,40.0838889,44.3055556
Armenia,Geghamasar,1060,40.3116667,45.68
Armenia,Geghamavan,1597,40.5619444,44.8827778
Armenia,Geghanist,2409,40.1497222,44.4344444
Armenia,Getahovit,2005,40.8958333,45.1313889
Armenia,Getashen,2114,40.0433333,43.9447222
Armenia,Getazat,1947,40.0380556,44.5638889
Armenia,Ghukasavan,2113,40.1261111,44.4177778
Armenia,Gladzor,2080,39.7783333,45.3477778
Armenia,Gogaran,1088,40.8955556,44.1991667
Armenia,Goris,20379,39.5077778,46.3386111
Armenia,Gosh,994,40.7225,45.0033333
Armenia,Griboyedov,1879,40.1130556,44.2716667
Armenia,Gyulagarak,2109,40.9697222,44.4713889
Armenia,Gyumri,148383,40.7894444,43.8475
Armenia,Haghartsin,3370,40.7780556,44.9625
Armenia,Hayanist,2031,40.1197222,44.3775
Armenia,Haykashen,1140,40.0727778,44.3069444
Armenia,Haykavan,1201,40.7558333,43.77
Armenia,Hnaberd,1817,40.6427778,44.1444444
Armenia,Hoktember,5348,40.1361111,44.0138889
Armenia,Horom,1893,40.6541667,43.8822222
Armenia,Hovtashat,3472,40.1019444,44.3427778
Armenia,Hovtashen,1134,40.0244444,44.45
Armenia,Hrazdan,40796,40.5016667,44.7547222
Armenia,Ijevan,14737,40.8755556,45.1491667
Armenia,Janfida,2986,40.0455556,44.0208333
Armenia,Jermuk,4582,39.8416667,45.6722222
Armenia,Jrahovit,1032,40.0452778,44.4736111
Armenia,Jrashen,3078,40.7875,44.1972222
Armenia,Jrashen,1696,40.0547222,44.5133333
Armenia,Kamaris,2064,40.2358333,44.6938889
Armenia,Kamo,1340,40.8280556,43.9483333
Armenia,Kanakeravan,2950,40.2472222,44.5366667
Armenia,Kapan,33161,39.2011111,46.415
Armenia,Kaputan,1252,40.3244444,44.6938889
Armenia,Karbi,3521,40.3338889,44.3777778
Armenia,Karchaghbyur,2274,40.1638889,45.5722222
Armenia,Kasakh,4247,40.5333333,44.4166667
Armenia,Khashtarak,1728,40.9386111,45.1797222
Armenia,Khndzoresk,1940,39.5122222,46.4336111
Armenia,Kosh,2581,40.3072222,44.16
Armenia,Lanjaghbyur,2097,40.2730556,45.1444444
Armenia,Lchashen,4182,40.5202778,44.9308333
Armenia,Lenughi,1499,40.1238889,43.9652778
Armenia,Lernakert,1306,40.5669444,43.9361111
Armenia,Lernanist,2511,40.4675,44.7980556
Armenia,Lernantsk,1192,40.7955556,44.2783333
Armenia,Lernapat,1710,40.82,44.3972222
Armenia,Lernavan,1517,40.7883333,44.1844444
Armenia,Lorut,1101,40.9388889,44.7725
Armenia,Lukashin,2197,40.1758333,44.0186111
Armenia,Madina,1024,40.0802778,45.2511111
Armenia,Maisyan,1521,40.8530556,43.8294444
Armenia,Malishka,4174,39.7369444,45.3875
Armenia,Maralik,4959,40.5722222,43.8669444
Armenia,Margahovit,3308,40.7380556,44.6875
Armenia,Margara,1360,40.0336111,44.1738889
Armenia,Marmarashen,2946,40.0575,44.4711111
Armenia,Marmashen,1644,40.8375,43.7719444
Armenia,Martuni,11037,40.1447222,45.3063889
Armenia,Masis,18911,40.0138889,44.4858333
Armenia,Mayakovski,1727,40.2522222,44.6383333
Armenia,Meghradzor,2659,40.6147222,44.6522222
Armenia,Meghrashen,1107,40.6758333,43.9486111
Armenia,Meghri,4540,38.9022222,46.2383333
Armenia,Merdzavan,2702,40.1816667,44.3991667
Armenia,Metsamor,8789,40.0713889,44.2891667
Armenia,Metsavan,4767,41.2016667,44.2288889
Armenia,Mets Masrik,2570,40.2186111,45.7694444
Armenia,Mets Parni,1934,40.8372222,44.1091667
Armenia,Mosesgegh,1964,40.9063889,45.4913889
Armenia,Mrganush,1032,40.0286111,44.5586111
Armenia,Mrgashat,4961,40.1297222,44.0705556
Armenia,Mrgashen,1623,40.285,44.5422222
Armenia,Mrgavan,1713,39.9661111,44.5333333
Armenia,Mrgavet,2131,40.0283333,44.4827778
Armenia,Musaler,2323,40.1544444,44.3777778
Armenia,Musayelyan,1499,40.7652778,43.9908333
Armenia,Myasnikyan,3458,40.1775,43.9063889
Armenia,Nalbandyan,4019,40.0677778,43.9855556
Armenia,Navur,1227,40.8613889,45.3175
Armenia,Nizami,1060,40.0913889,44.4041667
Armenia,Norakert,2485,40.1922222,44.3466667
Armenia,Noramarg,1811,40.0236111,44.4244444
Armenia,Nor Armavir,1597,40.0866667,43.99
Armenia,Norashen,3049,40.0041667,44.5947222
Armenia,Norashen,1386,41.1880556,44.3272222
Armenia,Noratus,5426,40.3822222,45.1783333
Armenia,Nor Geghi,4896,40.3211111,44.5797222
Armenia,Nor Gyukh,1462,40.2666667,44.6563889
Armenia,Nor Yerznka,1459,40.3133333,44.4047222
Armenia,Noyakert,1751,39.8166667,44.6669444
Armenia,Noyemberyan,5119,41.1725,44.9936111
Armenia,Nshavan,1916,40.0263889,44.5252778
Armenia,Odzun,4524,41.0538889,44.6113889
Armenia,Oshakan,4768,40.2705556,44.2691667
Armenia,Paravakar,1637,40.9805556,45.3991667
Armenia,Pemzashen,2436,40.5933333,43.94
Armenia,Pokr Mantash,1838,40.65,44.05
Armenia,Proshyan,4333,40.2480556,44.415
Armenia,Pshatavan,2159,40.0405556,44.0675
Armenia,Ptghni,1231,40.2566667,44.585
Armenia,Ranchpar,989,40.0252778,44.3702778
Armenia,Rind,1368,39.7597222,45.18
Armenia,Samaghar,2343,40.1852778,44.2422222
Armenia,Saramech,1111,40.7725,44.2191667
Armenia,Saratak,1115,40.67,43.8663889
Armenia,Sarigyukh,1096,41.0563889,45.1458333
Armenia,Sarukhan,6173,40.2891667,45.1341667
Armenia,Sasunik,1959,40.2472222,44.3380556
Armenia,Sevan,17083,40.555,44.9536111
Armenia,Shaghat,1011,39.5616667,45.9122222
Armenia,Shahumyan,3905,39.9308333,44.5783333
Armenia,Shahumyan,1843,40.7883333,44.5316667
Armenia,Shatin,1671,39.8333333,45.3016667
Armenia,Shenavan,1587,40.4861111,44.3825
Armenia,Shenavan,1757,40.05,43.9333333
Armenia,Shinuhayr,2206,39.4341667,46.3155556
Armenia,Shirakamut,2008,40.8605556,44.1527778
Armenia,Shirak,1007,40.8480556,43.9213889
Armenia,Shnogh,2872,41.1477778,44.8377778
Armenia,Sisavan,1793,39.9,44.6666667
Armenia,Sisian,15208,39.4627778,45.9730556
Armenia,Sis,1135,40.0586111,44.3863889
Armenia,Solak,2295,40.4636111,44.7086111
Armenia,Sovetakan,1613,40.1133333,44.0552778
Armenia,Spandaryan,1226,40.665,44.0188889
Armenia,Spitak,15063,40.7955556,44.2783333
Armenia,Surenavan,2241,39.75,44.8
Armenia,Talin,4945,40.3369444,43.8588889
Armenia,Tandzut,1816,40.0772222,44.0886111
Armenia,Taronik,1874,40.1330556,44.1991667
Armenia,Tashir,7318,41.1244444,44.2819444
Armenia,Tazagyukh,2248,40.1416667,45.1913889
Armenia,Tegh,2120,39.5547222,46.4758333
Armenia,Tsaghkaber,1207,40.7986111,44.1072222
Armenia,Tsaghkadzor,1408,40.5386111,44.7113889
Armenia,Tsaghkahovit,1551,40.6361111,44.2230556
Armenia,Tsiatsan,1050,40.1869444,44.2666667
Armenia,Tsovagyugh,3857,40.6330556,44.9522222
Armenia,Tsovak,2531,40.1819444,45.635
Armenia,Tsovazard,1949,40.4769444,45.0375
Armenia,Tsovinar,3968,40.1608333,45.4538889
Armenia,Tumanyan,1693,40.9633333,44.6516667
Armenia,Urut,1102,41.0711111,44.3969444
Armenia,Ushi,1276,40.3536111,44.3686111
Armenia,Vagharshapat,49514,40.1727778,44.2925
Armenia,Vaghashen,3235,40.1377778,45.3291667
Armenia,Vahagni,1184,40.9080556,44.6069444
Armenia,Vahan,1153,40.57,45.3955556
Armenia,Vanadzor,101099,40.8127778,44.4883333
Armenia,Vardablur,1297,40.95,44.4666667
Armenia,Vardadzor,2095,40.1916667,45.1875
Armenia,Vardenik,7709,40.135,45.4363889
Armenia,Vardenis,11382,40.1805556,45.7283333
Armenia,Varser,1614,40.5561111,44.9111111
Armenia,Vedi,12192,39.9105556,44.7277778
Armenia,Verin Artashat,3931,40.0005556,44.585
Armenia,Verin Dvin,1853,40.0252778,44.5908333
Armenia,Verin Getashen,4173,40.1327778,45.2486111
Armenia,Verishen,2114,39.5358333,46.3119444
Armenia,Vernashen,1162,39.7938889,45.3633333
Armenia,Voskehask,1803,40.7383333,43.7758333
Armenia,Voskehat,2181,40.1413889,44.3291667
Armenia,Voskevan,1287,41.1191667,45.0652778
Armenia,Voskevaz,3789,40.2797222,44.295
Armenia,Vostan,2925,39.9588889,44.5591667
Armenia,Yeghegnavan,1221,39.8277778,44.6372222
Armenia,Yeghegnut,1746,40.0902778,44.1625
Armenia,Yeghegnut,1154,40.9041667,44.6325
Armenia,Yeghvard,10705,40.3216667,44.4813889
Armenia,Yeraskhahun,1346,40.0722222,44.2158333
Armenia,Yerazgavors,1285,40.7,43.75
Armenia,Yerevan,1093499,40.1811111,44.5136111
Armenia,Zangakatun,1130,39.8094444,45.0511111
Armenia,Zaritap,1323,39.6372222,45.5086111
Armenia,Zar,1340,40.2611111,44.7361111
Armenia,Zhdanov,1512,40.1616667,44.0883333
Armenia,Zorak,1390,40.0925,44.3919444
Armenia,Zoravan,1167,40.3569444,44.5230556
Armenia,Zovaber,1470,40.5736111,44.7863889
Armenia,Zovuni,4484,40.5108333,44.4288889
Netherlands Antilles,Barber,2424,12.2833333,-69.0666667
Netherlands Antilles,Golden Rock,823,17.4833333,-62.9833333
Netherlands Antilles,Hato,13,12.1833333,-68.2833333
Netherlands Antilles,Kralendijk,3081,12.15,-68.2666667
Netherlands Antilles,Lagún,289,12.3166667,-69.1666667
Netherlands Antilles,Nieuwpoort,1937,12.05,-68.8166667
Netherlands Antilles,Oranjestad,1097,17.4666667,-62.9833333
Netherlands Antilles,Rincón,1496,12.2333333,-68.3333333
Netherlands Antilles,Sint Michiel,5138,12.1333333,-68.9833333
Netherlands Antilles,Soto,1987,12.2666667,-69.1
Netherlands Antilles,The Bottom,488,17.6333333,-63.25
Netherlands Antilles,Westpunt,783,12.3666667,-69.1666667
Netherlands Antilles,Willemstad,97590,12.1,-68.9166667
Netherlands Antilles,Windward Side,442,17.6333333,-63.2333333
Angola,Benguela,151235,-12.578333,13.407222
Angola,Caála,21205,-12.8525,15.560556
Angola,Cabinda,66020,-5.55,12.2
Angola,Caconda,10551,-13.733333,15.066667
Angola,Caluquembe,30305,-13.783333,14.683333
Angola,Camabatela,12839,-8.18812,15.37495
Angola,Camacupa,19150,-12.016667,17.483333
Angola,Catabola,18858,-12.15,17.283333
Angola,Catumbela,16980,-12.431389,13.547222
Angola,Caxito,28229,-8.58,13.664167
Angola,Cazaje,4764,-11.067147,20.701483
Angola,Chissamba,7677,-12.166667,17.333333
Angola,Huambo,226177,-12.776111,15.739167
Angola,Kibala,8915,-10.73366,14.979949
Angola,Kuito,113624,-12.383333,16.933333
Angola,Leúa,5168,-11.65,20.45
Angola,Lobito,207957,-12.319722,13.599722
Angola,Longonjo,24350,-12.906667,15.253333
Angola,Luanda,2776125,-8.836804,13.233174
Angola,Luau,18465,-10.707273,22.22466
Angola,Lubango,102541,-14.916667,13.5
Angola,Lucapa,20115,-8.419151,20.744655
Angola,Luena,21115,-11.783333,19.916667
Angola,Lumeje,4972,-11.55,20.783333
Angola,Malanje,87047,-9.544722,16.345278
Angola,Menongue,19141,-14.661639,17.688224
Angola,Namibe,80150,-15.196111,12.152222
Angola,Ondjiva,10169,-17.066667,15.733333
Angola,Saurimo,40498,-9.66078,20.391553
Angola,Soyo,67553,-6.134903,12.368935
Angola,Sumbe,33278,-11.206048,13.843713
Angola,Uíge,60008,-7.613282,15.056621
Argentina,Alta Gracia,40385,-31.652925,-64.428259
Argentina,Azul,52333,-36.776976,-59.858539
Argentina,Bahia Blanca,282950,-38.719595,-62.272432
Argentina,Bell Ville,35106,-32.625906,-62.68873
Argentina,Campana,83175,-34.168742,-58.95914
Argentina,Catamarca,213601,-28.469574,-65.785239
Argentina,Chacabuco,34587,-34.641667,-60.473889
Argentina,Chivilcoy,52307,-34.895661,-60.016667
Argentina,Comodoro Rivadavia,142597,-45.864135,-67.496558
Argentina,Concepcion del Uruguay,72904,-32.482493,-58.237217
Argentina,Concordia,155686,-31.392959,-58.02089
Argentina,Cordoba,1441007,-31.413496,-64.181052
Argentina,Corrientes,390481,-27.480596,-58.834099
Argentina,Dolores,25190,-36.313215,-57.679185
Argentina,Eldorado,62823,-26.404841,-54.624784
Argentina,Formosa,248756,-26.177534,-58.178139
Argentina,General Pico,55900,-35.656622,-63.756815
Argentina,General Roca,76066,-39.02797,-67.573711
Argentina,Goya,70340,-29.14003,-59.262564
Argentina,Gualeguaychu,88218,-33.009375,-58.51722
Argentina,Gualeguay,33120,-33.141559,-59.309657
Argentina,Jujuy,277150,-24.194565,-65.297116
Argentina,Junin,76369,-34.583816,-60.943318
Argentina,La Plata,684318,-34.921454,-57.954533
Argentina,La Rioja,178497,-29.411048,-66.850668
Argentina,Libertador General San Martin,49273,-23.806443,-64.787574
Argentina,Lincoln,24798,-34.866494,-61.530197
Argentina,Lujan,74823,-34.570278,-59.105
Argentina,Lujan,77625,-33.035471,-68.877823
Argentina,Mar del Plata,645771,-38.002278,-57.557539
Argentina,Mendoza,973047,-32.890845,-68.827171
Argentina,Mercedes,49067,-34.651455,-59.430676
Argentina,Mercedes,30649,-29.181858,-58.078951
Argentina,Mercedes,126559,-33.674359,-65.461405
Argentina,Necochea,84969,-38.547259,-58.736753
Argentina,Neuquen,359037,-38.951606,-68.059102
Argentina,Nueve de Julio,34717,-35.444374,-60.883131
Argentina,Obera,58939,-27.487059,-55.11994
Argentina,Olavarria,80005,-36.892715,-60.32254
Argentina,Parana,299257,-31.731967,-60.523802
Argentina,Pergamino,86708,-33.889949,-60.573568
Argentina,Posadas,313438,-27.367077,-55.896078
Argentina,Presidencia Roque Saenz Pena,89584,-26.785221,-60.438761
Argentina,Puerto Madryn,95547,-42.769201,-65.038513
Argentina,Punta Alta,53117,-38.875875,-62.073589
Argentina,Rafaela,84025,-31.250332,-61.486696
Argentina,Rawson,26341,-43.300158,-65.10228
Argentina,Reconquista,95979,-29.15,-59.65
Argentina,Resistencia,406967,-27.46056,-58.983886
Argentina,Rio Cuarto,174058,-33.130671,-64.349918
Argentina,Rio Gallegos,93234,-51.622613,-69.218127
Argentina,Rio Tercero,53396,-32.173008,-64.114055
Argentina,Rivadavia,65641,-33.190509,-68.46081
Argentina,Rosario,1218497,-32.946818,-60.639317
Argentina,Salta,548288,-24.785896,-65.411664
Argentina,San Carlos de Bariloche,110044,-41.140293,-71.301369
Argentina,San Francisco,71444,-31.427971,-62.082656
Argentina,San Juan,469958,-31.5375,-68.536389
Argentina,San Lorenzo,47627,-28.133061,-58.767331
Argentina,San Luis,184869,-33.295012,-66.335627
Argentina,San Martin,107554,-33.081031,-68.468138
Argentina,San Nicolas,130705,-33.335784,-60.225233
Argentina,San Pedro,67514,-33.679127,-59.666635
Argentina,San Pedro,43124,-24.231266,-64.866141
Argentina,San Rafael,125033,-34.617717,-68.330066
Argentina,San Ramon de la Nueva Oran,84504,-23.13398,-64.324645
Argentina,Santa Fe,456044,-31.629484,-60.701036
Argentina,Santa Rosa,89478,-36.616667,-64.283333
Argentina,Santiago del Estero,407636,-27.795112,-64.261489
Argentina,San Vicente,84333,-34.982645,-58.376169
Argentina,Tandil,100127,-37.321674,-59.133164
Argentina,Tartagal,63600,-22.516365,-63.801314
Argentina,Trelew,107883,-43.250075,-65.313295
Argentina,Tres Arroyos,47143,-38.373939,-60.279781
Argentina,Tucuman,828402,-26.824144,-65.2226
Argentina,Ushuaia,58045,-54.8,-68.3
Argentina,Veinticinco de Mayo,24668,-35.432303,-60.172707
Argentina,Venado Tuerto,71794,-33.745564,-61.968845
Argentina,Victoria,25139,-32.619888,-60.153907
Argentina,Viedma,76553,-40.813452,-62.996676
Argentina,Villa Carlos Paz,61095,-31.424138,-64.497778
Argentina,Villa Constitucion,44278,-33.227778,-60.329699
Argentina,Villa Maria,92337,-32.407514,-63.240161
Argentina,Zarate,88222,-34.098142,-59.028585
Austria,Absam,6594,47.3,11.5
Austria,Abtenau,5829,47.55,13.35
Austria,Altach,6040,47.35,9.65
Austria,Althofen,4833,47.15,14.233333
Austria,Altmunster,9652,47.9,13.75
Austria,Amstetten,22832,48.116667,14.866667
Austria,Anif,4154,47.75,13.066667
Austria,Ansfelden,14936,48.2,14.283333
Austria,Arnoldstein,6923,46.546111,13.71
Austria,Asten,6517,48.216667,14.4
Austria,Axams,5560,47.233333,11.3
Austria,Bad Aussee,5210,47.6,13.783333
Austria,Baden,24893,48.016667,16.233333
Austria,Bad Goisern,7869,47.633333,13.616667
Austria,Bad Hall,4935,48.033333,14.2
Austria,Bad Hofgastein,7002,47.166667,13.1
Austria,Bad Ischl,14267,47.716667,13.616667
Austria,Bad Sankt Leonhard,4775,46.962778,14.791667
Austria,Bad Voslau,11013,47.966667,16.2
Austria,Barnbach,4850,46.983333,16.05
Austria,Bergheim,5031,47.833333,13.033333
Austria,Berndorf,8796,47.95,16.1
Austria,Bischofshofen,10145,47.416667,13.216667
Austria,Bludenz,13904,47.149722,9.816667
Austria,Braunau,16403,48.266667,13.033333
Austria,Bregenz,26928,47.5,9.766667
Austria,Bruck an der Leitha,7339,48.016667,16.766667
Austria,Bruck an der Mur,13254,47.416667,15.283333
Austria,Deutschlandsberg,8049,46.815278,15.222222
Austria,Deutsch-Wagram,7153,48.299722,16.566667
Austria,Dornbirn,43013,47.416667,9.733056
Austria,Ebbs,5088,47.633333,12.216667
Austria,Ebensee,8376,47.8,13.766667
Austria,Ebenthal,7809,46.608056,14.364167
Austria,Eberndorf,6089,46.591389,14.643611
Austria,Ebreichsdorf,9509,47.95,16.4
Austria,Eisenerz,5987,47.533333,14.883333
Austria,Eisenstadt,11767,47.85,16.516667
Austria,Engerwitzdorf,8510,48.35,14.45
Austria,Enns,10816,48.2,14.466667
Austria,Feldbach,4877,46.953056,15.888333
Austria,Feldkirchen an der Donau,5286,48.35,14.05
Austria,Feldkirchen,14440,46.716667,14.1
Austria,Feldkirch,29446,47.233056,9.6
Austria,Ferlach,7661,46.526944,14.301944
Austria,Finkenstein,8406,46.565556,13.865278
Austria,Fohnsdorf,8203,47.2,14.683333
Austria,Frankenburg,5162,48.066667,13.483333
Austria,Freistadt,7574,48.5,14.5
Austria,Friesach,5369,46.955278,14.405833
Austria,Frohnleiten,6629,47.266667,15.316667
Austria,Fugen,3734,47.35,11.85
Austria,Furstenfeld,5962,47.05,16.083333
Austria,Gallneukirchen,6282,48.35,14.416667
Austria,Ganserndorf,8588,48.35,16.733333
Austria,Garsten,6657,48.016667,14.4
Austria,Gleisdorf,5245,47.1,15.716667
Austria,Gloggnitz,6213,47.666667,15.933333
Austria,Gmunden,13287,47.916667,13.8
Austria,Gmund,5811,48.766667,14.983333
Austria,Gotzis,10342,47.333056,9.633056
Austria,Gratkorn,6806,47.133333,15.35
Austria,Graz,222326,47.066667,15.45
Austria,Grieskirchen,4766,48.233333,13.833333
Austria,Grodig,6918,47.733333,13.033333
Austria,Guntramsdorf,9071,48.033333,16.3
Austria,Haag,5164,48.15,15.5
Austria,Hainburg,5622,48.15,16.933333
Austria,Hallein,18980,47.683333,13.1
Austria,Hall,11197,47.6,14.45
Austria,Hard,11766,47.483056,9.683056
Austria,Heidenreichstein,4472,48.866667,15.116667
Austria,Hermagor,7242,46.627222,13.367222
Austria,Herzogenburg,7866,48.266667,15.683333
Austria,Himberg,5534,48.083333,16.433333
Austria,Hochst,7207,47.466667,9.633056
Austria,Hohenems,14072,47.366667,9.683056
Austria,Hollabrunn,10966,48.55,16.083333
Austria,Hopfgarten,5314,47.45,12.166667
Austria,Horbranz,6414,47.55,9.75
Austria,Horn,6485,48.65,15.65
Austria,Horsching,5312,48.233333,14.183333
Austria,Imst,9225,47.233333,10.733333
Austria,Innsbruck,112467,47.266667,11.4
Austria,Jenbach,6806,47.4,11.783333
Austria,Jennersdorf,4319,46.939167,16.146667
Austria,Judenburg,9992,47.166667,14.666667
Austria,Kapfenberg,21819,47.433333,15.3
Austria,Kindberg,5790,47.5,15.45
Austria,Kirchbichl,5115,47.516667,12.083333
Austria,Kitzbuhel,8818,47.45,12.383333
Austria,Klagenfurt,90610,46.624722,14.305278
Austria,Klosterneuburg,24843,48.3,16.316667
Austria,Knittelfeld,12704,47.216667,14.816667
Austria,Koflach,10447,47.066667,15.083333
Austria,Korneuburg,11498,48.35,16.333333
Austria,Kottingbrunn,7184,47.95,16.216667
Austria,Krems,24092,48.416667,15.6
Austria,Kremsmunster,6626,48.05,14.133333
Austria,Krieglach,5236,47.533333,15.55
Austria,Kuchl,6668,47.616667,13.15
Austria,Kufstein,16116,47.583333,12.166667
Austria,Laakirchen,9569,47.966667,13.816667
Austria,Laa,6084,48.716667,16.383333
Austria,Landeck,7351,47.133333,10.566667
Austria,Langenlois,7081,48.466667,15.666667
Austria,Langenzersdorf,7733,48.3,16.35
Austria,Lauterach,9212,47.483056,9.733056
Austria,Leibnitz,7029,46.781667,15.541667
Austria,Lenzing,5044,47.966667,13.616667
Austria,Leoben,24809,47.383333,15.1
Austria,Leonding,22736,48.266667,14.25
Austria,Lienz,12270,46.831111,12.759722
Austria,Liezen,6903,47.566667,14.233333
Austria,Linz,181163,48.3,14.3
Austria,Lochau,5209,47.533333,9.75
Austria,Lustenau,20218,47.433056,9.65
Austria,Marchtrenk,11666,48.183333,14.116667
Austria,Maria Enzersdorf,8085,48.1,16.283333
Austria,Matrei,5076,47,12.533333
Austria,Mattersburg,6448,47.733333,16.4
Austria,Melk,5272,48.216667,15.316667
Austria,Micheldorf,5902,47.85,14.133333
Austria,Mistelbach,10820,48.57,16.576667
Austria,Mittelberg,4627,47.2,9.65
Austria,Mittersill,5680,47.266667,12.483333
Austria,Modling,20710,48.083333,16.283333
Austria,Moosburg,4602,46.6575,14.174722
Austria,Murzzuschlag,9410,47.6,15.683333
Austria,Nenzing,5856,47.183056,9.7
Austria,Neudorfl,4183,47.783333,16.283333
Austria,Neulengbach,7521,48.2,15.9
Austria,Neunkirchen,11313,47.716667,16.083333
Austria,Neusiedl am See,5949,47.933333,16.833333
Austria,Nuziders,4628,47.166667,9.8
Austria,Oberndorf,5738,48.25,13.333333
Austria,Oberwart,6879,47.283333,16.2
Austria,Pasching,6143,48.25,14.2
Austria,Paternion,6301,46.714167,13.636111
Austria,Perchtoldsdorf,14041,48.116667,16.266667
Austria,Perg,7644,48.25,14.633333
Austria,Pinkafeld,5257,47.366667,16.116667
Austria,Pottendorf,6105,47.9,16.383333
Austria,Poysdorf,5653,48.666667,16.633333
Austria,Pressbaum,6083,48.183333,16.083333
Austria,Purgstall,5247,48.05,15.133333
Austria,Purkersdorf,8327,48.2,16.166667
Austria,Radstadt,4926,47.383333,13.45
Austria,Rankweil,11455,47.283056,9.65
Austria,Reichenau,2673,47.7,15.833333
Austria,Retz,4139,48.75,15.95
Austria,Reutte,5851,47.483333,10.716667
Austria,Ried,11511,48.216667,13.5
Austria,Rottenmann,5561,47.516667,14.35
Austria,Rum,8498,47.283333,11.45
Austria,Rust,1726,47.8,16.666667
Austria,Saalfelden,16119,47.416667,12.85
Austria,Salzburg,145310,47.8,13.033333
Austria,Sankt Andra,10825,46.766111,14.823611
Austria,Sankt Florian,5760,48.166667,13.133333
Austria,Sankt Georgen,4180,47.933333,13.483333
Austria,Sankt Jakob,4481,46.547778,14.057222
Austria,Sankt Johann im Pongau,10887,47.35,13.2
Austria,Sankt Polten,49000,48.2,15.633333
Austria,Sankt Valentin,9063,48.166667,14.516667
Austria,Sankt Veit,13116,46.768056,14.360278
Austria,Scharding,4919,48.45,13.433333
Austria,Scharnstein,4631,47.9,13.95
Austria,Schladming,4659,47.383333,13.683333
Austria,Schrems,5811,48.783333,15.066667
Austria,Schruns,3506,47.066667,9.916667
Austria,Schwaz,12507,47.333333,11.7
Austria,Schwechat,15711,48.133333,16.466667
Austria,Seeboden,6221,46.821944,13.495
Austria,Seekirchen,9865,47.9,13.133333
Austria,Seewalchen,4959,47.95,13.583333
Austria,Sieghartskirchen,7062,48.25,16
Austria,Sierning,8722,48.033333,14.3
Austria,Spittal,16363,46.8,13.5
Austria,Steyregg,4856,48.283333,14.366667
Austria,Steyr,39567,48.05,14.416667
Austria,Stockerau,14831,48.383333,16.216667
Austria,Strasshof,7637,48.316667,16.666667
Austria,Tamsweg,6126,47.133333,13.8
Austria,Telfs,14028,47.3,11.066667
Austria,Ternitz,15153,47.716667,16.033333
Austria,Thalgau,5501,47.833333,13.25
Austria,Timelkam,5855,48,13.6
Austria,Traiskirchen,16212,48.016667,16.283333
Austria,Traismauer,5815,48.35,15.733333
Austria,Traun,23959,48.216667,14.233333
Austria,Trofaiach,8313,47.416667,15
Austria,Tulln,14201,48.333333,16.05
Austria,Velden am Worthersee,8817,46.616111,14.045833
Austria,Vienna,1569315,48.2,16.366667
Austria,Villach,58882,46.610278,13.855833
Austria,Vocklabruck,11887,48.016667,13.65
Austria,Vocklamarkt,4869,48,13.483333
Austria,Voitsberg,9980,47.033333,15.15
Austria,Volkermarkt,11543,46.662222,14.634444
Austria,Vols,6573,47.25,11.333333
Austria,Vomp,4628,47.333333,11.683333
Austria,Vorchdorf,7456,48,13.916667
Austria,Waidhofen,11774,47.966667,14.766667
Austria,Wattens,7517,47.283333,11.6
Austria,Weiz,9128,47.216667,15.616667
Austria,Wels,57947,48.166667,14.033333
Austria,Wernberg,5070,46.616667,13.933333
Austria,Wiener Neudorf,8530,48.066667,16.316667
Austria,Wiener Neustadt,38481,47.8,16.25
Austria,Wilhelmsburg,6718,48.1,15.6
Austria,Wolfsberg,25610,46.840556,14.844167
Austria,Wolfurt,8110,47.466667,9.75
Austria,Wolkersdorf,6416,48.383333,16.516667
Austria,Worgl,11265,47.483333,12.066667
Austria,Ybbs,5676,48.166667,15.083333
Austria,Zell am See,10046,47.316667,12.783333
Austria,Zeltweg,7726,47.183333,14.75
Austria,Zirl,6567,47.283333,11.233333
Austria,Zistersdorf,5661,48.533333,16.75
Austria,Zwettl,11718,48.616667,15.166667
Australia,Adelaide,1074168,-34.928661,138.598633
Australia,Albany,23913,-35.003101,117.865952
Australia,Albury,104261,-36.07494,146.923935
Australia,Alice Springs,26188,-23.697479,133.883621
Australia,Alyangula,1289,-13.85413,136.421295
Australia,Ararat,6111,-37.285419,142.927277
Australia,Armidale,22673,-30.50828,151.671234
Australia,Atherton,6959,-17.268641,145.47522
Australia,Australind,6621,-33.279202,115.715042
Australia,Ayr,9079,-19.573931,147.406662
Australia,Bairnsdale,11006,-37.822891,147.610413
Australia,Ballarat,85110,-37.56266,143.862579
Australia,Ballina,14248,-28.86414,153.565414
Australia,Batemans Bay,10557,-35.706581,150.175415
Australia,Benalla,9020,-36.551128,145.984253
Australia,Bendigo,81658,-36.758179,144.280243
Australia,Biloela,6309,-24.416667,150.5
Australia,Blackwater,7250,-23.583509,148.87912
Australia,Bongaree,13649,-27.08367,153.159424
Australia,Bowen,10983,-20.01367,148.247543
Australia,Bowral,9605,-34.477501,150.420395
Australia,Brisbane,1843459,-27.47101,153.024292
Australia,Broken Hill,17395,-31.961729,141.459976
Australia,Broome,13218,-17.955379,122.23922
Australia,Buderim,15228,-26.684429,153.057053
Australia,Bunbury,26370,-33.32711,115.641373
Australia,Bundaberg,52478,-24.866211,152.3479
Australia,Burnie,19976,-41.05584,145.903748
Australia,Burpengary,8280,-27.161131,152.959442
Australia,Busselton,12374,-33.652489,115.345497
Australia,Byron Bay,6764,-28.64201,153.611938
Australia,Caboolture,21478,-27.08465,152.951096
Australia,Cairns,154318,-16.92304,145.766251
Australia,Caloundra,38714,-26.797091,153.137711
Australia,Canberra,324025,-35.27603,149.13435
Australia,Carnarvon,7392,-24.88073,113.659401
Australia,Casino,9539,-28.858191,153.047485
Australia,Castlemaine,6604,-37.067089,144.216843
Australia,Cessnock,16394,-32.832111,151.356232
Australia,Charters Towers,9574,-20.07671,146.263535
Australia,Clifton Springs,7413,-38.1567,144.555099
Australia,Coffs Harbour,62978,-30.296261,153.11351
Australia,Colac,9089,-38.339001,143.584885
Australia,Collie,6337,-33.362061,116.156174
Australia,Coolum Beach,8555,-26.533331,153.091232
Australia,Cooma,6520,-36.234692,149.125977
Australia,Cootamundra,4934,-34.640949,148.028381
Australia,Corowa,5179,-35.999619,146.385803
Australia,Cowra,6799,-33.835541,148.696625
Australia,Craigieburn,19728,-37.6,144.95
Australia,Cranbourne,39420,-38.113419,145.283264
Australia,Crib Point,6908,-38.35,145.2
Australia,Dalby,9848,-27.18169,151.262054
Australia,Darwin,93081,-12.45722,130.836639
Australia,Deception Bay,16090,-27.193541,153.026306
Australia,Deniliquin,8024,-35.527409,144.959579
Australia,Devonport,19318,-41.176949,146.351517
Australia,Dubbo,29362,-32.24295,148.604843
Australia,Emerald,9399,-23.522961,148.157837
Australia,Esperance,7889,-33.86013,121.882591
Australia,Flinders,15000,-32.79924,134.211594
Australia,Forbes,4838,-33.384361,148.007599
Australia,Galiwinku,1347,-12.02811,135.564865
Australia,Gatton,6513,-27.558729,152.276184
Australia,Gawler,16362,-34.602509,138.749023
Australia,Geelong,150438,-38.153461,144.358093
Australia,Geraldton,27259,-28.778971,114.614594
Australia,Gladstone,30493,-23.84761,151.256348
Australia,Gold Coast,501175,-28.00029,153.430878
Australia,Goulburn,20941,-34.751549,149.720856
Australia,Grafton,16399,-29.690121,152.933365
Australia,Griffith,15456,-34.288528,146.050934
Australia,Gunnedah,7148,-30.98065,150.258377
Australia,Gympie,11029,-26.189159,152.658188
Australia,Hamilton,8869,-37.74334,142.028915
Australia,Hastings,6583,-38.3,145.183333
Australia,Healesville,7098,-37.65395,145.517181
Australia,Hervey Bay,47561,-25.285,152.873
Australia,Hobart,204863,-42.883209,147.331665
Australia,Horsham,12830,-36.711311,142.199814
Australia,Howard Springs,3359,-12.49576,131.044464
Australia,Ingham,6127,-18.645519,146.162476
Australia,Innisfail,10144,-17.522091,146.031021
Australia,Inverell,8561,-29.774031,151.111664
Australia,Jabiru,1892,-12.67558,132.831406
Australia,Karratha,11694,-20.73649,116.84638
Australia,Katherine,10142,-14.46517,132.263474
Australia,Kawana Waters,19881,-26.705999,153.131577
Australia,Kempsey,9522,-31.078979,152.830933
Australia,Kiama,10380,-34.668282,150.852188
Australia,Kingaroy,8573,-26.53994,151.837296
Australia,Kununurra,5679,-15.77813,128.744141
Australia,Kurri Kurri,10991,-32.819328,151.47908
Australia,Kwinana,20087,-32.230129,115.781281
Australia,Kyabram,6396,-36.313351,145.050354
Australia,Lakes Entrance,5849,-37.878941,147.995132
Australia,Lara,8179,-38.02388,144.406174
Australia,Launceston,72462,-41.438759,147.134674
Australia,Leeton,7299,-34.551048,146.404831
Australia,Lemon Tree Passage,5865,-32.731579,152.037186
Australia,Leopold,6120,-38.19001,144.468246
Australia,Lismore,31433,-28.81328,153.275803
Australia,Lithgow,11129,-33.482471,150.136307
Australia,Mackay,75924,-21.15345,149.165543
Australia,Mandurah,73369,-32.526901,115.721703
Australia,Maningrida,1391,-12.05111,134.22258
Australia,Mareeba,8403,-16.995001,145.423233
Australia,Maryborough,20680,-25.54073,152.704926
Australia,Maryborough,7046,-37.04562,143.739227
Australia,Medowie,5841,-32.741501,151.867599
Australia,Melbourne,3730212,-37.813938,144.963425
Australia,Melton,32369,-37.683392,144.585434
Australia,Mildura,47867,-34.185509,142.162506
Australia,Milingimbi,986,-12.10188,134.919006
Australia,Mittagong,6717,-34.45002,150.445724
Australia,Moranbah,7955,-21.99828,148.034836
Australia,Morayfield,10261,-27.108761,152.949066
Australia,Moree,8205,-29.46278,149.841568
Australia,Morwell,11585,-38.23476,146.394989
Australia,Moss Vale,6739,-34.553741,150.371155
Australia,Mount Barker,8357,-35.066667,138.866667
Australia,Mount Gambier,23210,-37.831799,140.77919
Australia,Mount Isa,22564,-20.725229,139.497269
Australia,Mudgee,9042,-32.433333,149.583333
Australia,Murray Bridge,11356,-35.119862,139.273453
Australia,Murwillumbah,6868,-28.32732,153.393387
Australia,Muswellbrook,11630,-32.261181,150.890091
Australia,Nambour,14919,-26.626129,152.959412
Australia,Nambucca Heads,6899,-30.643181,153.008835
Australia,Narrabri,7082,-30.32612,149.783707
Australia,Nelson Bay,7725,-32.720428,152.143982
Australia,Nerang,17684,-27.98941,153.336334
Australia,Newcastle,497961,-32.927792,151.784485
Australia,New Norfolk,5526,-42.78075,147.059387
Australia,Nguiu,1250,-11.75911,130.638153
Australia,Ngukurr,947,-14.73081,134.731018
Australia,Nhulunbuy,3202,-12.18652,136.782013
Australia,Northam,5858,-31.649321,116.674232
Australia,Orange,30402,-33.283089,149.100006
Australia,Pakenham,10602,-38.070179,145.474106
Australia,Palmerston,31075,-12.45722,130.836639
Australia,Parkes,11137,-33.137199,148.175903
Australia,Perth,1446715,-31.95224,115.861397
Australia,Port Augusta,12133,-32.495972,137.772812
Australia,Port Hedland,14289,-20.312149,118.610588
Australia,Port Keats,1351,-14.24029,129.52092
Australia,Portland,8842,-38.352612,141.605743
Australia,Port Lincoln,11247,-34.72625,135.87442
Australia,Port Macquarie,48553,-31.43084,152.908936
Australia,Port Pirie,12328,-33.191761,138.017456
Australia,Queanbeyan,32249,-35.354931,149.231995
Australia,Raymond Terrace,13606,-32.75,151.75
Australia,Rockhampton,65851,-23.38032,150.505951
Australia,Roebourne,19264,-20.772289,117.146477
Australia,Roma,5497,-26.56741,148.787506
Australia,Sale,12917,-38.11095,147.068024
Australia,Sawtell,14608,-30.36459,153.10141
Australia,Singleton,13813,-32.567421,151.166031
Australia,Somerville,7015,-38.216667,145.166667
Australia,Stawell,6991,-37.05632,142.780884
Australia,Sunbury,29926,-37.577419,144.726074
Australia,Swan Hill,9276,-35.3386,143.559525
Australia,Sydney,4394585,-33.861481,151.205475
Australia,Tamworth,38552,-31.090481,150.929047
Australia,Taree,44183,-31.91099,152.453873
Australia,Toowoomba,92802,-27.56056,151.953857
Australia,Torquay,6670,-25.283333,152.866667
Australia,Townsville,138959,-19.26639,146.805695
Australia,Traralgon,18226,-38.195278,146.541504
Australia,Tumut,6526,-35.300159,148.225052
Australia,Ulladulla,9250,-35.359058,150.472473
Australia,Ulverstone,9605,-41.160259,146.182419
Australia,Victor Harbor,7760,-35.550419,138.621536
Australia,Victoria Point,11930,-27.58329,153.311722
Australia,Wagga Wagga,55382,-35.125771,147.353745
Australia,Wangaratta,14023,-36.358459,146.320557
Australia,Warragul,9128,-38.159119,145.931183
Australia,Warrnambool,29928,-38.38176,142.487991
Australia,Warwick,12347,-28.219009,152.034378
Australia,Wellington,5428,-32.555882,148.945084
Australia,Whyalla,19646,-33.032681,137.564835
Australia,Wodonga,31518,-36.121792,146.888092
Australia,Wollongong,260918,-34.424,150.893448
Australia,Wonthaggi,5985,-38.605862,145.593552
Australia,Yeppoon,10769,-23.126829,150.744064
Australia,Young,7501,-34.313499,148.301071
Australia,Yulara,3903,-25.245291,130.980545
Aruba,Oranjestad,29998,12.5166667,-70.0333333
Azerbaijan,Agdam,39451,39.99096,46.927356
Azerbaijan,Agdas,23528,40.65,47.476111
Azerbaijan,Agstafa,12542,41.118889,45.453889
Azerbaijan,Agsu,17209,40.569167,48.396476
Azerbaijan,Alunitdag,857,40.521667,46.080556
Azerbaijan,Aran,6724,40.625278,46.975556
Azerbaijan,Artyom,13435,40.472255,50.333041
Azerbaijan,Astara,15190,38.455977,48.87498
Azerbaijan,Badamdar,11398,40.339444,49.803889
Azerbaijan,Baku,1116513,40.395278,49.882222
Azerbaijan,Basqal,1234,40.7552,48.391044
Azerbaijan,Buzovna,24795,40.517888,50.113901
Azerbaijan,Ceyranbatan,5684,40.540833,49.659722
Azerbaijan,Corat,8624,40.5725,49.706389
Azerbaijan,Culfa,10820,38.9558,45.6308
Azerbaijan,Gilazi,3277,40.903896,49.335522
Azerbaijan,Gilazi,3277,40.870977,49.342333
Azerbaijan,Goranboy,7334,40.610278,46.789722
Azerbaijan,Göyçay,35348,40.653056,47.740556
Azerbaijan,Gürgan,712,40.397462,50.336733
Azerbaijan,Guzdak,2462,40.374444,49.681944
Azerbaijan,Hadrut,2523,39.520018,47.0318
Azerbaijan,Haftoni,2003,38.763253,48.762231
Azerbaijan,Hasanabad,4308,39.336672,49.214143
Azerbaijan,Horadiz,2714,39.448771,47.335313
Azerbaijan,Hövsan,36293,40.374444,50.085278
Azerbaijan,Imisli,31381,39.871307,48.064094
Azerbaijan,Istisu,929,39.947532,45.962121
Azerbaijan,Kesla,17913,40.397778,49.898611
Azerbaijan,Kijäba,4567,38.532778,48.816667
Azerbaijan,Kirovskiy,34488,40.433333,49.85
Azerbaijan,Korgöz,2036,40.303056,49.62
Azerbaijan,Lerik,7094,38.772633,48.412788
Azerbaijan,Lökbatan,30694,40.323718,49.728038
Azerbaijan,Masalli,9603,39.027781,48.670276
Azerbaijan,Mastaga,40092,40.532778,50.003889
Azerbaijan,Mincivan,6353,39.029348,46.718471
Azerbaijan,Mugan,4410,40.095182,48.821136
Azerbaijan,Naftalan,7045,40.506667,46.825
Azerbaijan,Nardaran,7700,40.556111,50.005556
Azerbaijan,Neftçala,18661,39.37417,49.247224
Azerbaijan,Ordubad,9781,38.905954,46.023411
Azerbaijan,Pirsagi,5102,40.564032,49.8913
Azerbaijan,Pushkino,18182,39.458333,48.545
Azerbaijan,Puta,1018,40.296667,49.660278
Azerbaijan,Qabaqçöl,1293,41.72,46.264722
Azerbaijan,Qala,2709,40.44182,50.168121
Azerbaijan,Qaraçala,4211,39.813178,48.952303
Azerbaijan,Qaraçuxur,72989,40.396667,49.973611
Azerbaijan,Qarayeri,5565,40.78862,46.306589
Azerbaijan,Qax,11993,41.4225,46.924167
Azerbaijan,Qazanbulaq,980,40.618611,46.645278
Azerbaijan,Qazax,18904,41.093333,45.366111
Azerbaijan,Qobu,7377,40.404722,49.713056
Azerbaijan,Qobustan,13398,40.08238,49.412048
Azerbaijan,Qovlar,12819,40.942137,45.732171
Azerbaijan,Quba,22405,41.362587,48.515186
Azerbaijan,Qusar,16022,41.427284,48.42893
Azerbaijan,Quscu,408,40.555556,46.091944
Azerbaijan,Ramana,8855,40.442222,49.980556
Azerbaijan,Sabirabad,28076,40.009458,48.475154
Azerbaijan,Sabunçu,20996,40.4425,49.948056
Azerbaijan,Sahbuz,2674,39.407222,45.573889
Azerbaijan,Salyan,36555,39.593615,48.980552
Azerbaijan,Samur,1760,41.632544,48.430248
Azerbaijan,Saray,10173,40.532222,49.716389
Azerbaijan,Sollar,205,41.639727,48.664408
Azerbaijan,Sonqar,730,40.322099,49.601085
Azerbaijan,Suraabad,1945,40.819244,49.468745
Azerbaijan,Susa,18663,39.758934,46.749187
Azerbaijan,Tovuz,12626,40.992222,45.628889
Azerbaijan,Türkan,9699,40.363889,50.215
Azerbaijan,Türyançay,307,40.7088,47.54326
Azerbaijan,Ucar,15741,40.518333,47.654167
Azerbaijan,Vurgun,2635,41.094229,45.471616
Azerbaijan,Xaçmaz,37175,41.463489,48.80605
Azerbaijan,Xanlar,17816,40.586944,46.315833
Azerbaijan,Xocali,5810,39.9,46.866667
Azerbaijan,Xocali,5810,39.912973,46.790284
Azerbaijan,Xocasan,5089,40.413484,49.772088
Azerbaijan,Xudat,13625,41.630965,48.681
Azerbaijan,Yevlax,53715,40.612732,47.142329
Azerbaijan,Zabrat,21396,40.476104,49.941582
Azerbaijan,Zaqatala,18277,41.633611,46.643333
Azerbaijan,Zig,6001,40.343889,49.969167
Bosnia and Herzegovina | Bosnia,Banja Luka,221100,44.7758333,17.1855556
Bosnia and Herzegovina | Bosnia,Banovici,7211,44.4041667,18.4475
Bosnia and Herzegovina | Bosnia,Barice,3697,44.5405556,18.4811111
Bosnia and Herzegovina | Bosnia,Batkovici,4923,44.8536111,19.1963889
Bosnia and Herzegovina | Bosnia,Bihac,75641,44.8169444,15.8708333
Bosnia and Herzegovina | Bosnia,Bijela,3484,43.6086111,17.9519444
Bosnia and Herzegovina | Bosnia,Bijeljina,37691,44.7569444,19.2161111
Bosnia and Herzegovina | Bosnia,Bila,4397,43.7825,16.9252778
Bosnia and Herzegovina | Bosnia,Bileca,13256,42.8719444,18.4297222
Bosnia and Herzegovina | Bosnia,Blagaj,4715,43.2575,17.8886111
Bosnia and Herzegovina | Bosnia,Blatnica,5675,44.3530556,17.5894444
Bosnia and Herzegovina | Bosnia,Bosanska Dubica,9959,45.1766667,16.8094444
Bosnia and Herzegovina | Bosnia,Bosanska Gradiska,13345,45.1411111,17.25
Bosnia and Herzegovina | Bosnia,Bosanska Kostajnica,4739,45.2197222,16.5358333
Bosnia and Herzegovina | Bosnia,Bosanska Krupa,15193,44.8825,16.1513889
Bosnia and Herzegovina | Bosnia,Bosanski Brod,9249,45.1375,17.9897222
Bosnia and Herzegovina | Bosnia,Bosanski Novi,8920,45.0458333,16.3802778
Bosnia and Herzegovina | Bosnia,Bosanski Samac,3599,45.0591667,18.4669444
Bosnia and Herzegovina | Bosnia,Bosansko Grahovo,5642,44.1794444,16.3638889
Bosnia and Herzegovina | Bosnia,Bratunac,4717,44.1875,19.3394444
Bosnia and Herzegovina | Bosnia,Brcko,38478,44.8727778,18.8083333
Bosnia and Herzegovina | Bosnia,Breza,3732,44.0161111,18.2588889
Bosnia and Herzegovina | Bosnia,Bronzani Majdan,3945,44.7869444,16.9311111
Bosnia and Herzegovina | Bosnia,Bugojno,41378,44.0572222,17.4508333
Bosnia and Herzegovina | Bosnia,Busovaca,4775,44.0975,17.8788889
Bosnia and Herzegovina | Bosnia,Buzim,7229,45.0547222,16.0319444
Bosnia and Herzegovina | Bosnia,Cajnice,3908,43.5575,19.0711111
Bosnia and Herzegovina | Bosnia,Capljina,7923,43.1138889,17.7036111
Bosnia and Herzegovina | Bosnia,Careva Cuprija,3954,44.2658333,18.4291667
Bosnia and Herzegovina | Bosnia,Cazin,21741,44.9669444,15.9430556
Bosnia and Herzegovina | Bosnia,Cecava,3847,44.6866667,17.7705556
Bosnia and Herzegovina | Bosnia,Celinac,6670,44.7227778,17.3277778
Bosnia and Herzegovina | Bosnia,Cim,3966,43.3527778,17.7772222
Bosnia and Herzegovina | Bosnia,Citluk,5718,43.2286111,17.7008333
Bosnia and Herzegovina | Bosnia,Coralici,5223,44.9830556,15.9041667
Bosnia and Herzegovina | Bosnia,Crnici,5789,43.1288889,17.8666667
Bosnia and Herzegovina | Bosnia,Derventa,9772,44.9772222,17.9102778
Bosnia and Herzegovina | Bosnia,Divicani,7250,44.3666667,17.3261111
Bosnia and Herzegovina | Bosnia,Doboj,27234,44.7347222,18.0877778
Bosnia and Herzegovina | Bosnia,Dobrinje,3987,44.0497222,18.1194444
Bosnia and Herzegovina | Bosnia,Dobrljin,3581,45.1469444,16.5033333
Bosnia and Herzegovina | Bosnia,Donja Dubica,3489,45.075,18.4113889
Bosnia and Herzegovina | Bosnia,Donja Mahala,5565,45.0469444,18.6663889
Bosnia and Herzegovina | Bosnia,Donja Medjidja,3782,44.8025,18.4033333
Bosnia and Herzegovina | Bosnia,Donja Orahovica,5612,44.6530556,18.3702778
Bosnia and Herzegovina | Bosnia,Donje Dubrave,3811,44.4811111,18.6961111
Bosnia and Herzegovina | Bosnia,Donje Vukovije,3535,44.4636111,18.7538889
Bosnia and Herzegovina | Bosnia,Donji Vakuf,7955,44.1436111,17.4
Bosnia and Herzegovina | Bosnia,Dreznica,3908,43.5288889,17.2819444
Bosnia and Herzegovina | Bosnia,Drinovci,3791,43.355,17.3538889
Bosnia and Herzegovina | Bosnia,Dubravica,3868,44.4419444,18.1180556
Bosnia and Herzegovina | Bosnia,Foca,14614,43.505,18.7786111
Bosnia and Herzegovina | Bosnia,Fojnica,8244,43.9625,17.8983333
Bosnia and Herzegovina | Bosnia,Gacko,3417,43.1672222,18.5352778
Bosnia and Herzegovina | Bosnia,Glamoc,4015,44.0458333,16.8486111
Bosnia and Herzegovina | Bosnia,Gnojnica,3985,44.6205556,18.4466667
Bosnia and Herzegovina | Bosnia,Gorazde,17649,43.6669444,18.9763889
Bosnia and Herzegovina | Bosnia,Gornja Koprivna,4600,45.0119444,15.9572222
Bosnia and Herzegovina | Bosnia,Gornja Tuzla,4864,44.5561111,18.7613889
Bosnia and Herzegovina | Bosnia,Gornje Dubrave,4821,44.4713889,18.7297222
Bosnia and Herzegovina | Bosnia,Gornje Zivinice,4661,44.4286111,18.6169444
Bosnia and Herzegovina | Bosnia,Gornji Vakuf,7014,43.9380556,17.5883333
Bosnia and Herzegovina | Bosnia,Gostovici,5802,44.415,18.1583333
Bosnia and Herzegovina | Bosnia,Gracanica,15758,44.7033333,18.3097222
Bosnia and Herzegovina | Bosnia,Gradacac,15659,44.8808333,18.4269444
Bosnia and Herzegovina | Bosnia,Gromiljak,6457,43.9666667,18.0530556
Bosnia and Herzegovina | Bosnia,Grude,4627,43.3641667,17.4205556
Bosnia and Herzegovina | Bosnia,Hadzici,7173,43.8222222,18.2066667
Bosnia and Herzegovina | Bosnia,Hotonj,4013,43.8947222,18.3727778
Bosnia and Herzegovina | Bosnia,Ilici,3688,43.3472222,17.7680556
Bosnia and Herzegovina | Bosnia,Ilijas,5854,43.9508333,18.2708333
Bosnia and Herzegovina | Bosnia,Izacic,4089,44.875,15.7819444
Bosnia and Herzegovina | Bosnia,Jablanica,6209,43.6602778,17.7616667
Bosnia and Herzegovina | Bosnia,Jajce,9762,44.3422222,17.2655556
Bosnia and Herzegovina | Bosnia,Janja,5543,44.6652778,19.2477778
Bosnia and Herzegovina | Bosnia,Jelah,5291,44.6541667,17.9580556
Bosnia and Herzegovina | Bosnia,Jezerski,4361,44.9808333,16.0841667
Bosnia and Herzegovina | Bosnia,Kacuni,5042,44.065,17.9386111
Bosnia and Herzegovina | Bosnia,Kakanj,12405,44.1272222,18.1180556
Bosnia and Herzegovina | Bosnia,Karadaglije,3700,44.5716667,18.0183333
Bosnia and Herzegovina | Bosnia,Kiseljak,3447,44.4888889,18.5688889
Bosnia and Herzegovina | Bosnia,Kladanj,6783,44.2263889,18.6913889
Bosnia and Herzegovina | Bosnia,Kljuc,7244,44.535,16.7722222
Bosnia and Herzegovina | Bosnia,Knezica,4792,45.1027778,16.6775
Bosnia and Herzegovina | Bosnia,Kobilja Glava,3666,43.8819444,18.3891667
Bosnia and Herzegovina | Bosnia,Kocerin,3516,43.3897222,17.485
Bosnia and Herzegovina | Bosnia,Konjic,15950,43.6519444,17.9613889
Bosnia and Herzegovina | Bosnia,Koran,3394,43.8102778,18.5688889
Bosnia and Herzegovina | Bosnia,Laktasi,6464,44.9080556,17.3008333
Bosnia and Herzegovina | Bosnia,Lamovita,4582,44.9255556,16.9072222
Bosnia and Herzegovina | Bosnia,Lijesnica,3559,44.4941667,18.0741667
Bosnia and Herzegovina | Bosnia,Listica,9370,43.3833333,17.5927778
Bosnia and Herzegovina | Bosnia,Livno,11748,43.8269444,17.0077778
Bosnia and Herzegovina | Bosnia,Ljubinje,4235,42.9508333,18.0886111
Bosnia and Herzegovina | Bosnia,Ljubuski,9987,43.1969444,17.545
Bosnia and Herzegovina | Bosnia,Lokvine,3928,44.2047222,17.8563889
Bosnia and Herzegovina | Bosnia,Lopare,3614,44.6377778,18.8427778
Bosnia and Herzegovina | Bosnia,Lukavac,12607,44.5419444,18.5258333
Bosnia and Herzegovina | Bosnia,Lukavica,4084,44.7627778,18.1688889
Bosnia and Herzegovina | Bosnia,Maglajani,4221,44.9486111,17.3494444
Bosnia and Herzegovina | Bosnia,Maglaj,7398,44.5491667,18.0966667
Bosnia and Herzegovina | Bosnia,Mala Kladusa,6033,45.1341667,15.8586111
Bosnia and Herzegovina | Bosnia,Malesici,3764,44.7380556,18.2738889
Bosnia and Herzegovina | Bosnia,Maricka,3707,44.8588889,16.8522222
Bosnia and Herzegovina | Bosnia,Maslovare,4899,44.5655556,17.5336111
Bosnia and Herzegovina | Bosnia,Milici,8210,44.1316667,19.0316667
Bosnia and Herzegovina | Bosnia,Mionica,8701,44.8672222,18.4630556
Bosnia and Herzegovina | Bosnia,Modrica,5135,44.9544444,18.3036111
Bosnia and Herzegovina | Bosnia,Mostar,104517,43.3433333,17.8080556
Bosnia and Herzegovina | Bosnia,Mostre,4009,44.025,18.1413889
Bosnia and Herzegovina | Bosnia,Mramor,3918,44.5916667,18.5644444
Bosnia and Herzegovina | Bosnia,Mrkonjic Grad,14737,44.4158333,17.0861111
Bosnia and Herzegovina | Bosnia,Nevesinje,7312,43.2586111,18.1133333
Bosnia and Herzegovina | Bosnia,Novi Seher,4416,44.5102778,18.0258333
Bosnia and Herzegovina | Bosnia,Novi Travnik,10006,44.1711111,17.6575
Bosnia and Herzegovina | Bosnia,Obudovac,2171,44.965,18.6122222
Bosnia and Herzegovina | Bosnia,Odzak,11621,45.0111111,18.3266667
Bosnia and Herzegovina | Bosnia,Olovo,3305,44.13,18.5827778
Bosnia and Herzegovina | Bosnia,Omarska,6466,44.89,16.8991667
Bosnia and Herzegovina | Bosnia,Orasac,3856,44.6288889,16.0711111
Bosnia and Herzegovina | Bosnia,Orasje,3613,45.0355556,18.6933333
Bosnia and Herzegovina | Bosnia,Orguz,4371,43.7738889,16.8638889
Bosnia and Herzegovina | Bosnia,Ostra Luka,3923,45.0,18.5883333
Bosnia and Herzegovina | Bosnia,Ostrozac,5456,44.9086111,15.9402778
Bosnia and Herzegovina | Bosnia,Otoka,6595,44.96,16.1791667
Bosnia and Herzegovina | Bosnia,Pajic Polje,4026,43.9758333,17.5275
Bosnia and Herzegovina | Bosnia,Pale,7458,43.8161111,18.5694444
Bosnia and Herzegovina | Bosnia,Pazaric,4787,43.7886111,18.1608333
Bosnia and Herzegovina | Bosnia,Pecigrad,6514,45.0544444,15.8969444
Bosnia and Herzegovina | Bosnia,Peci,3650,44.6272222,16.7861111
Bosnia and Herzegovina | Bosnia,Petkovci,2211,44.4530556,19.0761111
Bosnia and Herzegovina | Bosnia,Piskavica,3797,44.8341667,16.9888889
Bosnia and Herzegovina | Bosnia,Pjanici,3537,44.9836111,15.8227778
Bosnia and Herzegovina | Bosnia,Podbrdo,4028,44.4408333,17.0138889
Bosnia and Herzegovina | Bosnia,Podhum,5801,43.7230556,17.0011111
Bosnia and Herzegovina | Bosnia,Podzvizd,6665,45.1741667,15.8736111
Bosnia and Herzegovina | Bosnia,Polje,3799,43.8805556,18.0744444
Bosnia and Herzegovina | Bosnia,Posusje,5114,43.4722222,17.3266667
Bosnia and Herzegovina | Bosnia,Potoci,8311,43.4086111,17.8786111
Bosnia and Herzegovina | Bosnia,Pribinic,3558,44.6105556,17.6905556
Bosnia and Herzegovina | Bosnia,Priboj,4351,44.6027778,18.9313889
Bosnia and Herzegovina | Bosnia,Prijedor,36346,44.9813889,16.7130556
Bosnia and Herzegovina | Bosnia,Prnjavor,7098,44.8702778,17.6627778
Bosnia and Herzegovina | Bosnia,Prozor,10349,43.8222222,17.6091667
Bosnia and Herzegovina | Bosnia,Puracic,3461,44.5469444,18.4766667
Bosnia and Herzegovina | Bosnia,Radisici,4071,43.2219444,17.5430556
Bosnia and Herzegovina | Bosnia,Rodoc,5159,43.3088889,17.8069444
Bosnia and Herzegovina | Bosnia,Rogatica,4946,43.8008333,19.0025
Bosnia and Herzegovina | Bosnia,Rumboci,3854,43.8322222,17.5011111
Bosnia and Herzegovina | Bosnia,Sanica,5666,44.6141667,16.6411111
Bosnia and Herzegovina | Bosnia,Sanski Most,13550,44.7652778,16.6655556
Bosnia and Herzegovina | Bosnia,Sarajevo,696726,43.85,18.3833333
Bosnia and Herzegovina | Bosnia,Sekovici,6315,44.2986111,18.8527778
Bosnia and Herzegovina | Bosnia,Serici,3663,44.4652778,18.5580556
Bosnia and Herzegovina | Bosnia,Sipovo,10737,44.2813889,17.0838889
Bosnia and Herzegovina | Bosnia,Skender Vakuf,6866,44.4908333,17.3775
Bosnia and Herzegovina | Bosnia,Skokovi,3553,45.0313889,15.9144444
Bosnia and Herzegovina | Bosnia,Sladna,4304,44.7294444,18.4241667
Bosnia and Herzegovina | Bosnia,Sokolac,8842,43.9397222,18.8016667
Bosnia and Herzegovina | Bosnia,Solina,4780,44.5602778,18.6947222
Bosnia and Herzegovina | Bosnia,Srbac,7380,45.0977778,17.525
Bosnia and Herzegovina | Bosnia,Srebrenica,2861,44.1063889,19.2969444
Bosnia and Herzegovina | Bosnia,Srebrenik,6723,44.7077778,18.4880556
Bosnia and Herzegovina | Bosnia,Stanari,3590,44.7472222,17.8294444
Bosnia and Herzegovina | Bosnia,Stijena,10844,44.9352778,16.0172222
Bosnia and Herzegovina | Bosnia,Stolac,7733,43.0844444,17.9575
Bosnia and Herzegovina | Bosnia,Stupari,4424,44.3147222,18.6841667
Bosnia and Herzegovina | Bosnia,Sturlic,5013,45.0638889,15.7780556
Bosnia and Herzegovina | Bosnia,Sumatac,4987,45.0988889,15.8575
Bosnia and Herzegovina | Bosnia,Svodna,4387,45.0372222,16.5383333
Bosnia and Herzegovina | Bosnia,Svojat,3515,44.3947222,18.7391667
Bosnia and Herzegovina | Bosnia,Tesanjka,5666,44.6730556,18.0127778
Bosnia and Herzegovina | Bosnia,Tesanj,7549,44.6116667,17.9872222
Bosnia and Herzegovina | Bosnia,Teslic,6404,44.6063889,17.8597222
Bosnia and Herzegovina | Bosnia,Todorovo,9560,45.0883333,15.9308333
Bosnia and Herzegovina | Bosnia,Tojsici,6587,44.4813889,18.7869444
Bosnia and Herzegovina | Bosnia,Tolisa,4282,45.0430556,18.6427778
Bosnia and Herzegovina | Bosnia,Tomislavgrad,7737,43.7180556,17.2266667
Bosnia and Herzegovina | Bosnia,Travnik,31127,44.2266667,17.6705556
Bosnia and Herzegovina | Bosnia,Trebinje,33177,42.7119444,18.3441667
Bosnia and Herzegovina | Bosnia,Trn,7553,44.8597222,17.2363889
Bosnia and Herzegovina | Bosnia,Trzacka Rastela,6617,44.9733333,15.7902778
Bosnia and Herzegovina | Bosnia,Turbe,4766,44.2436111,17.5713889
Bosnia and Herzegovina | Bosnia,Tuzla,142484,44.5427778,18.6694444
Bosnia and Herzegovina | Bosnia,Ugljevik,3452,44.6636111,19.0202778
Bosnia and Herzegovina | Bosnia,Ustikolina,4446,43.5836111,18.79
Bosnia and Herzegovina | Bosnia,Vares,7193,44.1644444,18.3283333
Bosnia and Herzegovina | Bosnia,Varoska Rijeka,6573,45.0847222,16.0141667
Bosnia and Herzegovina | Bosnia,Velagici,4972,44.5572222,16.7316667
Bosnia and Herzegovina | Bosnia,Velika Kladusa,19330,45.1894444,15.8116667
Bosnia and Herzegovina | Bosnia,Velika Obarska,5142,44.8052778,19.1641667
Bosnia and Herzegovina | Bosnia,Vidosi,3905,43.7713889,17.0283333
Bosnia and Herzegovina | Bosnia,Visegrad,6086,43.7847222,19.2991667
Bosnia and Herzegovina | Bosnia,Visoko,17890,43.9888889,18.1780556
Bosnia and Herzegovina | Bosnia,Vitez,8140,44.1544444,17.7902778
Bosnia and Herzegovina | Bosnia,Vitina,4384,43.2375,17.4838889
Bosnia and Herzegovina | Bosnia,Vlasenica,4508,44.1819444,18.9405556
Bosnia and Herzegovina | Bosnia,Vogosca,8179,43.9019444,18.3480556
Bosnia and Herzegovina | Bosnia,Voljevac,3764,43.8786111,17.6591667
Bosnia and Herzegovina | Bosnia,Vozuca,3209,44.3613889,18.3577778
Bosnia and Herzegovina | Bosnia,Vrnograc,6859,45.1636111,15.9536111
Bosnia and Herzegovina | Bosnia,Zabrisce,4261,43.7925,16.9422222
Bosnia and Herzegovina | Bosnia,Zavidovici,14380,44.4458333,18.1497222
Bosnia and Herzegovina | Bosnia,Zboriste,4922,45.1458333,16.0177778
Bosnia and Herzegovina | Bosnia,Zeljezno Polje,5783,44.4083333,17.9319444
Bosnia and Herzegovina | Bosnia,Zenica,164422,44.2013889,17.9063889
Bosnia and Herzegovina | Bosnia,Zepce,8502,44.4266667,18.0377778
Bosnia and Herzegovina | Bosnia,Zivinice,13640,44.4494444,18.6497222
Bosnia and Herzegovina | Bosnia,Zivinice,3718,44.5472222,17.375
Bosnia and Herzegovina | Bosnia,Zvornik,8024,44.3869444,19.1013889
Barbados,Bathsheba,1765,13.2166667,-59.5166667
Barbados,Blackmans,623,13.1833333,-59.5333333
Barbados,Bridgetown,98511,13.1,-59.6166667
Barbados,Crab Hill,727,13.3166667,-59.6333333
Barbados,Greenland,623,13.25,-59.5666667
Barbados,Hillaby,519,13.2166667,-59.5833333
Barbados,Holetown,1350,13.1833333,-59.65
Barbados,Oistins,2285,13.0666667,-59.5333333
Barbados,Speightstown,3634,13.25,-59.65
Bangladesh,Abhaynagar,42658,23.0166667,89.4666667
Bangladesh,Badarganj,32604,25.6666667,89.05
Bangladesh,Bajitpur,34564,24.2166667,90.95
Bangladesh,Bandarban,32526,22.2,92.2166667
Bangladesh,Baniachang,37812,24.5166667,91.3666667
Bangladesh,Barisal,280437,22.7,90.3666667
Bangladesh,Bera,39608,24.0833333,89.6166667
Bangladesh,Bhairab Bazar,105470,24.0666667,90.9666667
Bangladesh,Bhandaria,30222,22.4833333,90.0666667
Bangladesh,Bheramara,38164,24.0333333,88.9666667
Bangladesh,Bhola,99090,22.6833333,90.65
Bangladesh,Chandpur,120183,23.15,90.7166667
Bangladesh,Char Bhadrasan,34427,23.3166667,90.2166667
Bangladesh,Chhagalnaiya,39339,23.03,91.5069444
Bangladesh,Chhatak,39223,25.0333333,91.6666667
Bangladesh,Chilmari,49742,25.55,89.7166667
Bangladesh,Dhaka,6493177,23.7230556,90.4086111
Bangladesh,Dhamrai,38003,23.9122222,90.2683333
Bangladesh,Dinajpur,206251,25.6333333,88.6333333
Bangladesh,Dohar,45549,23.5883333,90.1469444
Bangladesh,Faridpur,112200,23.6,89.8333333
Bangladesh,Fatikchhari,39974,22.725,91.7675
Bangladesh,Feni,84038,23.0186111,91.41
Bangladesh,Gafargaon,34181,24.4333333,90.5666667
Bangladesh,Gaurnadi,40524,22.9666667,90.2333333
Bangladesh,Gazipur,132249,23.8,90.65
Bangladesh,Habiganj,88770,24.3833333,91.4166667
Bangladesh,Hajiganj,44349,23.2511111,90.8591667
Bangladesh,Ishurdi,82005,24.1333333,89.0833333
Bangladesh,Jaipur Hat,73076,25.1,89.0166667
Bangladesh,Jamalpur,167914,24.9166667,89.9333333
Bangladesh,Jhikargachha,41962,23.1166667,89.1166667
Bangladesh,Kalia,40497,23.05,89.6333333
Bangladesh,Kaliganj,45636,23.4166667,89.1333333
Bangladesh,Keshabpur,30930,22.9166667,89.2166667
Bangladesh,Khagrachari,50364,23.1,91.9666667
Bangladesh,Khulna,1342429,22.8,89.55
Bangladesh,Kishorganj,90700,24.4333333,90.7666667
Bangladesh,Laksham,82299,23.2472222,91.1425
Bangladesh,Lakshmipur,61710,22.95,90.8333333
Bangladesh,Lalmanir Hat,65135,25.9,89.45
Bangladesh,Lalmohan,42225,22.3166667,90.7166667
Bangladesh,Madaripur,84799,23.1752778,90.2072222
Bangladesh,Manikchhari,24836,22.8386111,91.8455556
Bangladesh,Manikganj,85800,23.8552778,90.0125
Bangladesh,Mathbaria,29764,22.3,89.95
Bangladesh,Maulvi Bazar,57448,24.4833333,91.7833333
Bangladesh,Mehendiganj,39429,22.8166667,90.5333333
Bangladesh,Mirzapur,41142,24.1,90.1
Bangladesh,Morrelganj,31651,22.4666667,89.85
Bangladesh,Muktagachha,24687,24.7666667,90.2333333
Bangladesh,Nabinagar,31675,23.8916667,90.9733333
Bangladesh,Nageshwari,49431,25.9666667,89.7166667
Bangladesh,Nalchiti,38708,22.6333333,90.2833333
Bangladesh,Naral,55118,23.1666667,89.5
Bangladesh,Narayanganj,223773,23.6233333,90.5011111
Bangladesh,Narsingdi,281110,23.9208333,90.7180556
Bangladesh,Nawabganj,142373,24.6,88.2833333
Bangladesh,Netrakona,79025,24.8833333,90.7166667
Bangladesh,Pabna,137904,24.0,89.25
Bangladesh,Palang,67659,23.2166667,90.35
Bangladesh,Panchagarh,48536,26.3333333,88.5666667
Bangladesh,Parbatipur,48026,25.65,88.9166667
Bangladesh,Patiya,51367,22.3030556,91.9783333
Bangladesh,Phultala,37990,22.7,89.5166667
Bangladesh,Pirganj,34610,25.8666667,88.3666667
Bangladesh,Pirojpur,54424,22.5666667,89.9833333
Bangladesh,Rajshahi,700206,24.3666667,88.6
Bangladesh,Ramganj,55247,23.1,90.85
Bangladesh,Ramgarh,28017,22.9702778,91.7966667
Bangladesh,Rangpur,285586,25.75,89.25
Bangladesh,Raozan,25711,22.5661111,91.9325
Bangladesh,Raypur,64659,23.05,90.7666667
Bangladesh,Sakhipur,40874,24.3,90.1833333
Bangladesh,Sarankhola,36475,22.3,89.7833333
Bangladesh,Sarishabari,81334,24.7333333,89.8333333
Bangladesh,Satkhira,128933,22.7166667,89.1
Bangladesh,Sherpur,107431,25.0166667,90.0166667
Bangladesh,Shibganj,35965,24.6833333,88.1666667
Bangladesh,Sirajganj,167501,24.45,89.7166667
Bangladesh,Sunamganj,76491,25.0666667,91.4
Bangladesh,Teknaf,40562,20.8666667,92.3
Bangladesh,Thakurgaon,71104,26.0333333,88.4666667
Bangladesh,Tungi,337620,23.89,90.4058333
Belgium,Aalst,77534,50.933333,4.033333
Belgium,Aalter,18802,51.083333,3.45
Belgium,Aarschot,27656,50.983333,4.833333
Belgium,Aartselaar,14193,51.133333,4.383333
Belgium,Alken,10933,50.866667,5.3
Belgium,Alveringem,4910,51.016667,2.716667
Belgium,Amay,13307,50.55,5.316667
Belgium,Amel,5221,50.35,6.15
Belgium,Andenne,24055,50.483333,5.1
Belgium,Anderlues,11597,50.4,4.266667
Belgium,Anhée,7125,50.316667,4.883333
Belgium,Ans,27297,50.65,5.533333
Belgium,Anthisnes,4116,50.483333,5.516667
Belgium,Antoing,7507,50.566667,3.45
Belgium,Antwerp,459805,51.216667,4.416667
Belgium,Anzegem,13920,50.833333,3.466667
Belgium,Ardooie,9161,50.983333,3.2
Belgium,Arendonk,12247,51.316667,5.083333
Belgium,Arlon,26179,49.683333,5.816667
Belgium,As,7250,51.016667,5.583333
Belgium,Asse,28985,50.916667,4.2
Belgium,Assenede,13495,51.233333,3.75
Belgium,Assesse,6279,50.366667,5.016667
Belgium,Ath,26681,50.633333,3.783333
Belgium,Attert,4491,49.766667,5.783333
Belgium,Aubange,14932,49.583333,5.8
Belgium,Aubel,4119,50.7,5.85
Belgium,Avelgem,9106,50.766667,3.433333
Belgium,Awans,8612,50.666667,5.466667
Belgium,Aywaille,10636,50.466667,5.666667
Belgium,Baarle-Hertog,2305,51.45,4.933333
Belgium,Baelen,3928,50.633333,5.966667
Belgium,Balen,19978,51.166667,5.15
Belgium,Bassenge,8151,50.766667,5.6
Belgium,Bastogne,14395,50,5.716667
Belgium,Beaumont,6645,50.233333,4.233333
Belgium,Beauraing,8242,50.116667,4.966667
Belgium,Beauvechain,6334,50.783333,4.766667
Belgium,Beernem,14512,51.15,3.333333
Belgium,Beerse,16208,51.316667,4.866667
Belgium,Beersel,23228,50.766667,4.3
Belgium,Begijnendijk,9178,51.016667,4.766667
Belgium,Bekkevoort,5714,50.95,4.966667
Belgium,Beloeil,13405,50.55,3.716667
Belgium,Beringen,40930,51.05,5.216667
Belgium,Berlaar,10370,51.116667,4.65
Belgium,Berlare,13853,51.033333,4
Belgium,Berloz,2770,50.7,5.216667
Belgium,Bernissart,11588,50.466667,3.633333
Belgium,Bertem,9215,50.866667,4.633333
Belgium,Bertogne,2852,50.083333,5.666667
Belgium,Bertrix,8063,49.85,5.25
Belgium,Bever,1932,50.916667,4.316667
Belgium,Beveren,45179,51.216667,4.25
Belgium,Beyne-Heusay,11608,50.616667,5.65
Belgium,Bierbeek,8994,50.833333,4.766667
Belgium,Bièvre,3207,49.933333,5.016667
Belgium,Bilzen,29622,50.866667,5.516667
Belgium,Binche,32030,50.4,4.166667
Belgium,Blankenberge,18230,51.316667,3.133333
Belgium,Blegny,12745,50.666667,5.733333
Belgium,Bocholt,12346,51.166667,5.583333
Belgium,Boechout,12145,51.166667,4.5
Belgium,Bonheiden,14260,51.033333,4.533333
Belgium,Boom,15810,51.083333,4.366667
Belgium,Boortmeerbeek,11570,50.983333,4.566667
Belgium,Borgloon,9955,50.8,5.333333
Belgium,Bornem,19997,51.1,4.233333
Belgium,Borsbeek,10334,51.2,4.483333
Belgium,Bouillon,5347,49.8,5.066667
Belgium,Boussu,20058,50.433333,3.8
Belgium,Boutersem,7702,50.85,4.833333
Belgium,Braine-le-Château,9627,50.683333,4.266667
Belgium,Braine-le-Comte,20133,50.6,4.133333
Belgium,Braives,5672,50.633333,5.15
Belgium,Brasschaat,37040,51.283333,4.45
Belgium,Brecht,25908,51.35,4.633333
Belgium,Bredene,14862,51.233333,2.966667
Belgium,Bree,14363,51.133333,5.6
Belgium,Brugelette,3358,50.6,3.85
Belgium,Brugge,116709,51.216667,3.233333
Belgium,Brunehaut,7592,50.5,4.416667
Belgium,Brussels,1019022,50.833333,4.333333
Belgium,Buggenhout,13510,51.016667,4.2
Belgium,Bullingen,5340,50.416667,6.266667
Belgium,Burdinne,2799,50.583333,5.066667
Belgium,Butgenbach,5516,50.433333,6.2
Belgium,Celles,5471,50.716667,3.45
Belgium,Cerfontaine,4500,50.166667,4.416667
Belgium,Chapelle-lez-Herlaimont,14353,50.466667,4.283333
Belgium,Charleroi,200132,50.416667,4.433333
Belgium,Chastre,6243,50.6,4.633333
Belgium,Châtelet,35238,50.4,4.516667
Belgium,Chaudfontaine,20960,50.583333,5.633333
Belgium,Chaumont-Gistoux,10943,50.683333,4.733333
Belgium,Chièvres,6045,50.583333,3.8
Belgium,Chimay,9720,50.05,4.316667
Belgium,Chiny,4897,49.733333,5.333333
Belgium,Ciney,14830,50.3,5.1
Belgium,Clavier,4092,50.416667,5.366667
Belgium,Colfontaine,19964,50.383333,3.866667
Belgium,Comblain-au-Pont,5308,50.466667,5.583333
Belgium,Courcelles,29473,50.466667,4.366667
Belgium,Court-Saint-Étienne,9353,50.65,4.566667
Belgium,Couvin,13518,50.05,4.483333
Belgium,Crisnée,2587,50.716667,5.4
Belgium,Dalhem,6391,50.716667,5.716667
Belgium,Damme,10924,51.25,3.283333
Belgium,Daverdisse,1299,50.016667,5.116667
Belgium,Deerlijk,11292,50.85,3.35
Belgium,De Haan,11766,51.266667,3.033333
Belgium,Deinze,27777,50.983333,3.533333
Belgium,Denderleeuw,16969,50.883333,4.066667
Belgium,Dendermonde,43055,51.033333,4.116667
Belgium,Dentergem,8038,50.966667,3.416667
Belgium,De Panne,9799,51.1,2.583333
Belgium,De Pinte,10020,51,3.65
Belgium,Dessel,8707,51.233333,5.116667
Belgium,Destelbergen,16853,51.05,3.8
Belgium,Diepenbeek,17699,50.9,5.4
Belgium,Diest,22516,50.983333,5.05
Belgium,Diksmuide,15515,51.033333,2.866667
Belgium,Dilbeek,39482,50.85,4.266667
Belgium,Dinant,12875,50.266667,4.916667
Belgium,Dison,13642,50.616667,5.85
Belgium,Doische,2739,50.133333,4.75
Belgium,Donceel,2712,50.65,5.316667
Belgium,Dour,16861,50.4,3.783333
Belgium,Drogenbos,4843,50.783333,4.316667
Belgium,Duffel,16011,51.1,4.516667
Belgium,Durbuy,10251,50.35,5.466667
Belgium,Edegem,21839,51.15,4.45
Belgium,Eeklo,19116,51.183333,3.566667
Belgium,Éghezée,14352,50.6,4.9
Belgium,Ellezelles,5566,50.733333,3.683333
Belgium,Enghien,11367,50.7,4.033333
Belgium,Engis,5737,50.583333,5.416667
Belgium,Érezée,2930,50.3,5.55
Belgium,Erquelinnes,9396,50.3,4.116667
Belgium,Esneux,13497,50.533333,5.566667
Belgium,Essen,16754,51.466667,4.466667
Belgium,Estaimpuis,9340,50.7,3.25
Belgium,Étalle,5228,49.683333,5.6
Belgium,Eupen,18029,50.633333,6.033333
Belgium,Evergem,31615,51.116667,3.7
Belgium,Faimes,3349,50.666667,5.266667
Belgium,Farciennes,11488,50.433333,4.55
Belgium,Fauvillers,1952,49.85,5.666667
Belgium,Ferrières,4434,50.4,5.6
Belgium,Fexhe-le-Haut-Clocher,3082,50.666667,5.4
Belgium,Fléron,15994,50.616667,5.683333
Belgium,Fleurus,22080,50.483333,4.533333
Belgium,Flobecq,3142,50.733333,3.733333
Belgium,Floreffe,7480,50.433333,4.783333
Belgium,Florennes,10723,50.25,4.616667
Belgium,Florenville,5464,49.7,5.3
Belgium,Frameries,20598,50.4,3.9
Belgium,Galmaarden,7939,50.75,3.966667
Belgium,Gavere,11888,50.933333,3.666667
Belgium,Gedinne,4416,49.983333,4.933333
Belgium,Geel,34697,51.166667,5
Belgium,Geer,2682,50.666667,5.166667
Belgium,Geetbets,5813,50.883333,5.116667
Belgium,Gembloux,21676,50.566667,4.683333
Belgium,Genappe,14266,50.6,4.45
Belgium,Genk,63666,50.966667,5.5
Belgium,Gent,231493,51.05,3.716667
Belgium,Geraardsbergen,30807,50.766667,3.866667
Belgium,Gerpinnes,11977,50.333333,4.516667
Belgium,Gesves,6150,50.4,5.066667
Belgium,Gingelom,7930,50.75,5.116667
Belgium,Gistel,11084,51.166667,2.95
Belgium,Glabbeek,5070,50.866667,4.95
Belgium,Gooik,8957,50.8,4.116667
Belgium,Gouvy,4706,50.185,5.941111
Belgium,Grez-Doiceau,12367,50.733333,4.7
Belgium,Grimbergen,33561,50.933333,4.383333
Belgium,Grobbendonk,10724,51.2,4.716667
Belgium,Haacht,13541,50.983333,4.633333
Belgium,Haaltert,17129,50.9,4
Belgium,Habay,7704,49.733333,5.616667
Belgium,Halen,8548,50.95,5.1
Belgium,Halle,34479,50.733333,4.233333
Belgium,Hamme,22891,51.1,4.133333
Belgium,Hamoir,3500,50.433333,5.533333
Belgium,Hamois,6662,50.333333,5.133333
Belgium,Hannut,14129,50.666667,5.083333
Belgium,Harelbeke,25978,50.85,3.3
Belgium,Hasselt,69222,50.933333,5.333333
Belgium,Hastière,5147,50.216667,4.833333
Belgium,Havelange,4790,50.383333,5.233333
Belgium,Heers,6689,50.75,5.283333
Belgium,Heist-op-den-Berg,37873,51.083333,4.716667
Belgium,Hemiksem,9504,51.15,4.35
Belgium,Hensies,6390,50.433333,3.666667
Belgium,Herbeumont,1612,49.783333,5.233333
Belgium,Herentals,25912,51.183333,4.833333
Belgium,Herent,19218,50.9,4.666667
Belgium,Herenthout,8379,51.15,4.766667
Belgium,Herk-de-Stad,11566,50.933333,5.166667
Belgium,Herne,6459,50.716667,4.033333
Belgium,Héron,4305,50.55,5.083333
Belgium,Herselt,13493,51.05,4.883333
Belgium,Herstal,36503,50.666667,5.633333
Belgium,Herstappe,93,50.733333,5.416667
Belgium,Herve,16544,50.633333,5.8
Belgium,Herzele,16523,50.883333,3.883333
Belgium,Hoegaarden,6110,50.783333,4.9
Belgium,Hoeilaart,10272,50.766667,4.466667
Belgium,Hoeselt,9265,50.85,5.483333
Belgium,Holsbeek,9094,50.916667,4.75
Belgium,Hooglede,9900,50.983333,3.083333
Belgium,Hoogstraten,18524,51.4,4.766667
Belgium,Hotton,4969,50.266667,5.45
Belgium,Houffalize,4614,50.133333,5.783333
Belgium,Houthulst,8951,50.983333,2.95
Belgium,Houyet,4505,50.183333,5.016667
Belgium,Hove,7968,51.15,4.466667
Belgium,Huldenberg,9137,50.783333,4.583333
Belgium,Hulshout,9198,51.083333,4.783333
Belgium,Huy,19973,50.516667,5.233333
Belgium,Ichtegem,13582,51.1,3
Belgium,Ieper,35089,50.85,2.883333
Belgium,Incourt,4395,50.7,4.783333
Belgium,Ingelmunster,10603,50.916667,3.25
Belgium,Ittre,6014,50.65,4.266667
Belgium,Izegem,26382,50.916667,3.2
Belgium,Jabbeke,13488,51.183333,3.083333
Belgium,Jalhay,7688,50.566667,5.966667
Belgium,Jodoigne,11930,50.716667,4.866667
Belgium,Juprelle,8354,50.716667,5.533333
Belgium,Jurbise,9483,50.533333,3.933333
Belgium,Kalmthout,17485,51.383333,4.466667
Belgium,Kampenhout,10784,50.95,4.55
Belgium,Kapellen,26410,51.316667,4.433333
Belgium,Kapelle-op-den-Bos,8859,51.016667,4.366667
Belgium,Kaprijke,6114,51.216667,3.6
Belgium,Kasterlee,17765,51.25,4.95
Belgium,Keerbergen,12363,51,4.616667
Belgium,Kinrooi,11946,51.15,5.75
Belgium,Knesselare,7889,51.133333,3.416667
Belgium,Knokke-Heist,33781,51.35,3.266667
Belgium,Koekelare,8317,51.083333,2.966667
Belgium,Koksijde,21027,51.1,2.65
Belgium,Kontich,20290,51.133333,4.45
Belgium,Kortemark,11937,51.033333,3.033333
Belgium,Kortenaken,7374,50.916667,5.066667
Belgium,Kortenberg,17774,50.883333,4.533333
Belgium,Kortessem,8042,50.866667,5.366667
Belgium,Kortrijk,73879,50.833333,3.266667
Belgium,Kraainem,12815,50.866667,4.466667
Belgium,Kruibeke,14815,51.166667,4.316667
Belgium,Kruishoutem,8179,50.9,3.516667
Belgium,Kuurne,12638,50.85,3.283333
Belgium,Laarne,11600,51.033333,3.85
Belgium,La Bruyère,8194,50.283333,4.583333
Belgium,La Hulpe,7415,50.733333,4.483333
Belgium,La Louvière,76668,50.466667,4.183333
Belgium,Lanaken,24771,50.883333,5.65
Belgium,Landen,14458,50.75,5.083333
Belgium,La Roche-en-Ardenne,4200,50.183333,5.583333
Belgium,Lebbeke,17372,51,4.133333
Belgium,Ledegem,9102,50.85,3.116667
Belgium,Lede,16813,50.966667,3.983333
Belgium,Léglise,3865,49.8,5.533333
Belgium,Lendelede,5393,50.883333,3.233333
Belgium,Lennik,8818,50.8,4.15
Belgium,Lens,3902,50.55,3.9
Belgium,Leopoldsburg,14149,51.116667,5.25
Belgium,Lessines,17687,50.716667,3.833333
Belgium,Leuven,92892,50.883333,4.7
Belgium,Libin,4609,49.983333,5.25
Belgium,Lichtervelde,8169,51.033333,3.15
Belgium,Liedekerke,11980,50.866667,4.083333
Belgium,Liège,182597,50.633333,5.566667
Belgium,Lierneux,3332,50.283333,5.8
Belgium,Lille,15466,51.233333,4.833333
Belgium,Limbourg,5612,50.616667,5.933333
Belgium,Lincent,2884,50.716667,5.033333
Belgium,Linkebeek,4823,50.766667,4.333333
Belgium,Lint,7982,51.133333,4.5
Belgium,Lobbes,5467,50.35,4.25
Belgium,Lochristi,19696,51.1,3.833333
Belgium,Lokeren,37567,51.1,3.983333
Belgium,Lommel,31993,51.233333,5.3
Belgium,Londerzeel,17274,51,4.3
Belgium,Lontzen,4862,50.683333,6
Belgium,Lovendegem,9272,51.1,3.6
Belgium,Lubbeek,13574,50.883333,4.833333
Belgium,Lummen,13689,50.983333,5.2
Belgium,Maaseik,23684,51.1,5.8
Belgium,Maasmechelen,36251,50.816667,5.666667
Belgium,Machelen,12252,50.916667,4.433333
Belgium,Maldegem,22092,51.216667,3.45
Belgium,Malmédy,11514,50.416667,6.033333
Belgium,Manage,22196,50.5,4.216667
Belgium,Manhay,3128,50.3,5.666667
Belgium,Marche-en-Famenne,16856,50.2,5.333333
Belgium,Marchin,5063,50.466667,5.233333
Belgium,Martelange,1440,49.833333,5.733333
Belgium,Mechelen,77531,51.033333,4.466667
Belgium,Meerhout,9346,51.133333,5.083333
Belgium,Meise,18497,50.933333,4.333333
Belgium,Meix-devant-Virton,2637,49.6,5.483333
Belgium,Melle,10687,51,3.8
Belgium,Menen,31916,50.8,3.116667
Belgium,Merbes-le-Château,3999,50.316667,4.15
Belgium,Merchtem,14660,50.966667,4.233333
Belgium,Merelbeke,22047,51,3.75
Belgium,Merksplas,7963,51.366667,4.866667
Belgium,Mesen,975,50.766667,2.9
Belgium,Messancy,7144,49.6,5.816667
Belgium,Mettet,12014,50.316667,4.666667
Belgium,Meulebeke,10948,50.95,3.283333
Belgium,Middelkerke,17789,51.183333,2.816667
Belgium,Modave,3825,50.45,5.3
Belgium,Moerbeke,5855,51.166667,3.933333
Belgium,Mol,32659,51.183333,5.1
Belgium,Momignies,5183,50.033333,4.166667
Belgium,Mons,91277,50.45,3.933333
Belgium,Mont-Saint-Guibert,6557,50.633333,4.616667
Belgium,Moorslede,10720,50.883333,3.066667
Belgium,Morlanwelz,18233,50.45,4.233333
Belgium,Mortsel,24525,51.166667,4.466667
Belgium,Mouscron,52069,50.733333,3.216667
Belgium,Musson,4225,49.566667,5.7
Belgium,Namur,106284,50.466667,4.866667
Belgium,Nandrin,5480,50.5,5.416667
Belgium,Nassogne,5081,50.133333,5.35
Belgium,Nazareth,10890,50.966667,3.6
Belgium,Neerpelt,16122,51.216667,5.416667
Belgium,Neufchâteau,6416,49.833333,5.433333
Belgium,Nevele,11153,51.033333,3.55
Belgium,Niel,8656,51.116667,4.333333
Belgium,Nieuwerkerken,6466,50.866667,5.183333
Belgium,Nieuwpoort,10845,51.133333,2.75
Belgium,Nijlen,20792,51.166667,4.65
Belgium,Ninove,34795,50.833333,4.016667
Belgium,Nivelles,24149,50.6,4.333333
Belgium,Ohey,4324,50.433333,5.133333
Belgium,Olen,11070,51.15,4.85
Belgium,Olne,3836,50.583333,5.75
Belgium,Onhaye,3014,50.25,4.833333
Belgium,Oosterzele,13151,50.95,3.8
Belgium,Oostkamp,21489,51.15,3.233333
Belgium,Oostrozebeke,7489,50.916667,3.333333
Belgium,Opglabbeek,9452,51.05,5.583333
Belgium,Opwijk,12045,50.966667,4.183333
Belgium,Oreye,3373,50.733333,5.366667
Belgium,Ostend,69011,51.216667,2.916667
Belgium,Oudenaarde,27935,50.85,3.6
Belgium,Oudenburg,8752,51.183333,3
Belgium,Oud-Heverlee,10533,50.833333,4.666667
Belgium,Oud-Turnhout,12354,51.316667,4.983333
Belgium,Ouffet,2477,50.433333,5.466667
Belgium,Oupeye,23594,50.7,5.65
Belgium,Overijse,23486,50.766667,4.533333
Belgium,Overpelt,13344,51.216667,5.416667
Belgium,Paliseul,5037,49.9,5.133333
Belgium,Pecq,5302,50.683333,3.333333
Belgium,Peer,15551,51.133333,5.466667
Belgium,Pepingen,4261,50.75,4.15
Belgium,Pepinster,9530,50.566667,5.816667
Belgium,Péruwelz,16647,50.516667,3.583333
Belgium,Perwez,7340,50.616667,4.816667
Belgium,Philippeville,8051,50.2,4.533333
Belgium,Pittem,6589,51,3.266667
Belgium,Plombières,9596,50.733333,5.95
Belgium,Pont-à-Celles,15909,50.5,4.35
Belgium,Poperinge,19537,50.85,2.716667
Belgium,Profondeville,11401,50.383333,4.866667
Belgium,Putte,15276,51.066667,4.633333
Belgium,Puurs,15944,51.083333,4.283333
Belgium,Quaregnon,18491,50.433333,3.85
Belgium,Quiévrain,6560,50.4,3.683333
Belgium,Raeren,9925,50.683333,6.116667
Belgium,Ranst,17405,51.2,4.55
Belgium,Ravels,13560,51.366667,5
Belgium,Remicourt,5050,50.683333,5.333333
Belgium,Rendeux,2320,50.233333,5.5
Belgium,Retie,10069,51.266667,5.066667
Belgium,Riemst,15809,50.8,5.6
Belgium,Rijkevorsel,10606,51.35,4.766667
Belgium,Rixensart,21616,50.716667,4.533333
Belgium,Rochefort,11978,50.166667,5.216667
Belgium,Roeselare,56016,50.95,3.133333
Belgium,Ronse,24204,50.75,3.6
Belgium,Rotselaar,15007,50.95,4.716667
Belgium,Rouvroy,1946,49.533333,5.5
Belgium,Ruiselede,5129,51.05,3.4
Belgium,Rumes,4918,50.55,3.3
Belgium,Rumst,14521,51.083333,4.416667
Belgium,Sainte-Ode,2310,50.083333,5.533333
Belgium,Saint-Ghislain,22500,50.45,3.816667
Belgium,Saint-Hubert,5538,50.016667,5.383333
Belgium,Saint-Léger,3092,49.616667,5.65
Belgium,Saint-Nicolas,22586,50.633333,5.533333
Belgium,Schelle,7675,51.133333,4.333333
Belgium,Schilde,20373,51.233333,4.566667
Belgium,Schoten,33622,51.25,4.5
Belgium,Seneffe,11025,50.516667,4.25
Belgium,Seraing,60737,50.6,5.483333
Belgium,Silly,7887,50.65,3.916667
Belgium,Sint-Amands,7653,51.05,4.2
Belgium,Sint-Genesius-Rode,17990,50.75,4.35
Belgium,Sint-Gillis-Waas,17658,51.216667,4.133333
Belgium,Sint-Katelijne-Waver,19487,51.066667,4.533333
Belgium,Sint-Laureins,6657,51.25,3.516667
Belgium,Sint-Lievens-Houtem,9146,50.916667,3.85
Belgium,Sint-Martens-Latem,8303,51.016667,3.633333
Belgium,Sint-Niklaas,69010,51.166667,4.133333
Belgium,Sint-Pieters-Leeuw,30446,50.783333,4.233333
Belgium,Sint-Truiden,37859,50.8,5.2
Belgium,Soignies,24869,50.583333,4.066667
Belgium,Sombreffe,7452,50.516667,4.6
Belgium,Somme-Leuze,4532,50.333333,5.366667
Belgium,Soumagne,15237,50.616667,5.75
Belgium,Spa,10756,50.5,5.866667
Belgium,Sprimont,12945,50.5,5.666667
Belgium,Stabroek,17294,51.333333,4.366667
Belgium,Staden,10786,50.983333,3.016667
Belgium,Stavelot,6646,50.383333,5.933333
Belgium,Steenokkerzeel,10566,50.916667,4.516667
Belgium,Stekene,16989,51.2,4.033333
Belgium,Stoumont,2970,50.416667,5.8
Belgium,Tellin,2353,50.083333,5.216667
Belgium,Temse,26054,51.133333,4.216667
Belgium,Tenneville,2510,50.1,5.533333
Belgium,Ternat,14569,50.866667,4.183333
Belgium,Tervuren,20623,50.816667,4.516667
Belgium,Tessenderlo,16574,51.066667,5.083333
Belgium,Theux,11587,50.533333,5.816667
Belgium,Thuin,14682,50.333333,4.283333
Belgium,Tielt,19299,51,3.316667
Belgium,Tienen,31743,50.8,4.95
Belgium,Tinlot,2236,50.483333,5.366667
Belgium,Tintigny,3538,49.683333,5.516667
Belgium,Tongeren,29816,50.783333,5.466667
Belgium,Torhout,18933,51.066667,3.1
Belgium,Tournai,67720,50.6,3.383333
Belgium,Tremelo,13721,50.983333,4.7
Belgium,Trooz,7559,50.566667,5.683333
Belgium,Tubize,21859,50.683333,4.2
Belgium,Turnhout,39654,51.316667,4.95
Belgium,Vaux-sur-Sûre,4581,49.916667,5.583333
Belgium,Verlaine,3600,50.6,5.316667
Belgium,Verviers,52824,50.583333,5.866667
Belgium,Veurne,11983,51.066667,2.666667
Belgium,Vielsalm,7291,50.284722,5.918611
Belgium,Villers-la-Ville,9592,50.583333,4.533333
Belgium,Villers-le-Bouillet,6059,50.583333,5.266667
Belgium,Vilvoorde,36955,50.933333,4.433333
Belgium,Virton,11259,49.566667,5.533333
Belgium,Visé,17054,50.733333,5.7
Belgium,Vorselaar,7238,51.2,4.766667
Belgium,Vosselaar,10317,51.316667,4.883333
Belgium,Waarschoot,7762,51.15,3.6
Belgium,Waasmunster,10460,51.1,4.083333
Belgium,Wachtebeke,6911,51.166667,3.866667
Belgium,Waimes,6661,50.416667,6.116667
Belgium,Walcourt,17501,50.25,4.416667
Belgium,Walhain,5992,50.616667,4.7
Belgium,Wanze,12918,50.533333,5.216667
Belgium,Waregem,35896,50.883333,3.416667
Belgium,Waremme,13737,50.683333,5.25
Belgium,Wasseiges,2471,50.616667,5
Belgium,Waterloo,28910,50.716667,4.383333
Belgium,Wavre,32112,50.716667,4.616667
Belgium,Welkenraedt,9006,50.65,5.966667
Belgium,Wellen,6804,50.85,5.316667
Belgium,Wellin,2937,50.083333,5.116667
Belgium,Wemmel,14406,50.916667,4.3
Belgium,Wervik,17340,50.783333,3.033333
Belgium,Westerlo,22579,51.083333,4.916667
Belgium,Wetteren,22930,51,3.883333
Belgium,Wevelgem,30954,50.8,3.166667
Belgium,Wezembeek-Oppem,13245,50.85,4.483333
Belgium,Wichelen,11014,51,3.983333
Belgium,Wielsbeke,8828,50.9,3.366667
Belgium,Wijnegem,8932,51.233333,4.533333
Belgium,Willebroek,22808,51.066667,4.366667
Belgium,Wingene,12887,51.066667,3.266667
Belgium,Wommelgem,11917,51.2,4.516667
Belgium,Wuustwezel,18117,51.383333,4.6
Belgium,Yvoir,8169,50.333333,4.883333
Belgium,Zandhoven,12306,51.216667,4.65
Belgium,Zaventem,28188,50.883333,4.466667
Belgium,Zedelgem,21968,51.15,3.133333
Belgium,Zele,20236,51.066667,4.033333
Belgium,Zelzate,11901,51.2,3.816667
Belgium,Zemst,21096,50.983333,4.466667
Belgium,Zingem,6588,50.9,3.65
Belgium,Zoersel,20642,51.266667,4.7
Belgium,Zomergem,8158,51.116667,3.55
Belgium,Zonhoven,19922,50.983333,5.35
Belgium,Zonnebeke,11581,50.866667,2.983333
Belgium,Zottegem,24434,50.866667,3.8
Belgium,Zoutleeuw,7897,50.833333,5.1
Belgium,Zuienkerke,2736,51.266667,3.166667
Belgium,Zulte,14670,50.916667,3.433333
Belgium,Zutendaal,6962,50.933333,5.566667
Belgium,Zwevegem,23358,50.8,3.333333
Belgium,Zwijndrecht,18249,51.216667,4.333333
Burkina Faso,Banfora,63883,10.6333333,-4.7666667
Burkina Faso,Batié,6525,9.8833333,-2.9166667
Burkina Faso,Bobo Dioulasso,370809,11.2,-4.3
Burkina Faso,Bogandé,9916,12.9713889,-0.1436111
Burkina Faso,Boromo,13240,11.75,-2.9333333
Burkina Faso,Boulsa,17623,12.6675,-0.5758333
Burkina Faso,Boussé,11093,13.1,-3.3833333
Burkina Faso,Dano,11224,11.15,-3.0666667
Burkina Faso,Dédougou,47235,12.4666667,-3.4666667
Burkina Faso,Diapaga,24302,12.0708333,1.7888889
Burkina Faso,Diébougou,12814,10.9666667,-3.25
Burkina Faso,Djibo,22821,14.1022222,-1.6305556
Burkina Faso,Dori,27554,14.0333333,-0.0333333
Burkina Faso,Gaoua,7300,10.2991667,-3.2508333
Burkina Faso,Garango,29076,11.8,-0.5505556
Burkina Faso,Gayéri,2004,12.6497222,0.4930556
Burkina Faso,Gorom-Gorom,6743,14.4438889,-0.2361111
Burkina Faso,Goulouré,6719,12.2305556,-1.9288889
Burkina Faso,Gourcy,17982,13.2166667,-2.35
Burkina Faso,Houndé,23617,11.5,-3.5166667
Burkina Faso,Kaya,39130,13.0916667,-1.0844444
Burkina Faso,Kokologo,25958,12.1897222,-1.8855556
Burkina Faso,Kombissiri,19180,12.0655556,-1.3375
Burkina Faso,Kongoussi,26338,13.3258333,-1.5347222
Burkina Faso,Koudougou,86965,12.25,-2.3666667
Burkina Faso,Koupéla,19850,12.1794444,-0.3516667
Burkina Faso,Léo,21151,11.1,-2.1
Burkina Faso,Manga,15269,11.6636111,-1.0730556
Burkina Faso,Nouna,21144,12.7333333,-3.8666667
Burkina Faso,Orodara,18635,10.9491667,-4.9341667
Burkina Faso,Ouagadougou,1031330,12.3702778,-1.5247222
Burkina Faso,Ouahigouya,61439,13.5833333,-2.4166667
Burkina Faso,Ouargaye,30726,11.5033333,0.0572222
Burkina Faso,Pitmoaga,8041,12.2397222,-1.8766667
Burkina Faso,Pô,21003,11.1697222,-1.145
Burkina Faso,Réo,24616,12.3166667,-2.4666667
Burkina Faso,Sapouy,3862,11.5544444,-1.7736111
Burkina Faso,Sindou,3942,10.6666667,-5.1666667
Burkina Faso,Solenzo,10451,12.1833333,-4.0833333
Burkina Faso,Tenkodogo,37123,11.78,-0.3697222
Burkina Faso,Toma,9926,12.65,-4.4166667
Burkina Faso,Tougan,17702,13.0666667,-3.0666667
Burkina Faso,Yako,23080,12.9666667,-2.2666667
Burkina Faso,Ziniaré,12783,12.5822222,-1.2983333
Burkina Faso,Zorgo,19789,12.2488889,-0.6158333
Bulgaria,Ahtopol,857,42.1,27.95
Bulgaria,Ajtos,21177,42.7,27.25
Bulgaria,Alfatar,1941,43.95,27.2833333
Bulgaria,Antonovo,1950,43.15,26.1666667
Bulgaria,Ardino,3497,41.5833333,25.1333333
Bulgaria,Asenovgrad,50735,42.0166667,24.8666667
Bulgaria,Balgarovo,2344,42.6166667,27.3
Bulgaria,Bankja,8104,42.7,23.1333333
Bulgaria,Bansko,8412,41.8394444,23.5
Bulgaria,Batak,4103,41.95,24.2166667
Bulgaria,Batanovci,2532,42.5997222,22.9505556
Bulgaria,Belene,10401,43.65,25.1166667
Bulgaria,Belica,3334,41.9569444,23.5725
Bulgaria,Belogradcik,4865,43.6272222,22.6836111
Bulgaria,Beloslav,7817,43.1833333,27.7
Bulgaria,Belovo,4533,42.2166667,24.0166667
Bulgaria,Berkovica,13574,43.2361111,23.1258333
Bulgaria,Bjala,1753,43.45,25.7333333
Bulgaria,Bjala,10284,42.8833333,27.8833333
Bulgaria,Blagoevgrad,69547,42.0166667,23.1
Bulgaria,Bobosevo,1528,42.1597222,23.0163889
Bulgaria,Bobovdol,7222,42.3697222,23.0172222
Bulgaria,Boljarovo,1474,42.15,26.8166667
Bulgaria,Borovo,2520,43.5,25.8
Bulgaria,Botevgrad,20497,42.9,23.7833333
Bulgaria,Bracigovo,4600,42.0166667,24.3666667
Bulgaria,Bregovo,2629,44.1516667,22.6425
Bulgaria,Breznik,4150,42.7413889,22.8980556
Bulgaria,Brezovo,1920,42.35,25.0833333
Bulgaria,Buhovo,3069,42.7666667,23.5666667
Bulgaria,Burgas,188554,42.5,27.4666667
Bulgaria,Carevo,5023,42.1666667,27.85
Bulgaria,Cepelare,5342,41.7333333,24.6833333
Bulgaria,Cirpan,17622,42.2,25.3333333
Bulgaria,Dalgopol,4911,43.05,27.35
Bulgaria,Debelec,4396,43.0333333,25.6166667
Bulgaria,Devin,6766,41.7333333,24.4
Bulgaria,Dimitrovgrad,42827,42.05,25.6
Bulgaria,Dimovo,1145,43.7416667,22.7269444
Bulgaria,Dobric,92309,43.5666667,27.8333333
Bulgaria,Dolna Banja,4471,42.3,23.7666667
Bulgaria,Dolna Mitropolija,3746,43.4666667,24.5333333
Bulgaria,Dolni Dabnik,5561,43.4,24.4333333
Bulgaria,Dospat,2391,41.65,24.1666667
Bulgaria,Dragoman,3196,42.9188889,22.9316667
Bulgaria,Drjanovo,8017,42.9827778,25.4922222
Bulgaria,Dulovo,6463,43.8166667,27.15
Bulgaria,Dupnica,38656,42.2666667,23.1166667
Bulgaria,Dve Mogili,4561,43.6,25.8666667
Bulgaria,Elena,6171,42.9333333,25.8833333
Bulgaria,Elhovo,11723,42.1666667,26.5666667
Bulgaria,Elin Pelin,4699,42.6666667,23.6
Bulgaria,Etropole,11024,42.8333333,24.0
Bulgaria,Gabrovo,61109,42.8747222,25.3341667
Bulgaria,Galabovo,9080,42.1333333,25.85
Bulgaria,Godec,4551,43.015,23.0441667
Bulgaria,Gramada,1812,43.8344444,22.6586111
Bulgaria,Guljanci,4135,43.6333333,24.7
Bulgaria,Gurkovo,2933,42.6666667,25.7333333
Bulgaria,Gurkovo,2933,42.6666667,25.8
Bulgaria,Harmanli,20065,41.9333333,25.9
Bulgaria,Haskovo,78865,41.9402778,25.5694444
Bulgaria,Ihtiman,11554,42.4333333,23.8166667
Bulgaria,Iskar,4109,43.3833333,27.4833333
Bulgaria,Isperih,8276,43.7166667,26.8333333
Bulgaria,Ivajlovgrad,4451,41.5333333,26.1333333
Bulgaria,Jablanica,2662,43.0313889,24.1127778
Bulgaria,Jakoruda,5931,42.0252778,23.6841667
Bulgaria,Jambol,75290,42.4833333,26.5
Bulgaria,Kalofer,3736,42.6166667,24.9833333
Bulgaria,Kameno,5133,42.5666667,27.3
Bulgaria,Kaolinovo,1489,43.6166667,27.1166667
Bulgaria,Karlovo,24464,42.6333333,24.8
Bulgaria,Karnobat,19902,42.65,26.9833333
Bulgaria,Kaspican,3211,43.3,27.1833333
Bulgaria,Kavarna,10626,43.4333333,28.3333333
Bulgaria,Kazanlak,50336,42.6166667,25.4
Bulgaria,Kermen,2172,42.5,26.25
Bulgaria,Kilifarevo,2484,42.9833333,25.6333333
Bulgaria,Kjustendil,47315,42.2838889,22.6911111
Bulgaria,Klisura,1708,42.7,24.45
Bulgaria,Kneza,9201,43.5,24.0833333
Bulgaria,Kocerinovo,2431,42.0833333,23.0666667
Bulgaria,Kojnare,3678,43.35,24.1333333
Bulgaria,Koprivstica,2618,42.6333333,24.35
Bulgaria,Kostenec,9660,42.2666667,23.8166667
Bulgaria,Kostinbrod,11239,42.8166667,23.2166667
Bulgaria,Kotel,7117,42.8833333,26.45
Bulgaria,Kozloduj,10602,43.7833333,23.7333333
Bulgaria,Kresna,3756,41.7333333,23.15
Bulgaria,Kresna,3756,41.8,23.1833333
Bulgaria,Kricim,8478,42.05,24.4666667
Bulgaria,Krivodol,2646,43.3744444,23.4844444
Bulgaria,Krumovgrad,4478,41.4666667,25.65
Bulgaria,Kubrat,7327,43.8,26.5
Bulgaria,Kula,3393,43.8877778,22.5213889
Bulgaria,Laki,2720,41.85,24.8166667
Bulgaria,Letnica,3980,43.3116667,25.0733333
Bulgaria,Levski,13203,43.3666667,25.1333333
Bulgaria,Ljaskovec,9000,43.1111111,25.7283333
Bulgaria,Ljubimec,7623,41.8333333,26.0833333
Bulgaria,Lom,24906,43.8138889,23.2361111
Bulgaria,Lovec,39788,43.1333333,24.7166667
Bulgaria,Loznica,2512,43.9666667,27.9166667
Bulgaria,Lukovit,9020,43.2,24.1666667
Bulgaria,Madan,7179,41.5,24.95
Bulgaria,Magliz,3465,42.6,25.55
Bulgaria,Malko Tarnovo,2920,41.9833333,27.5333333
Bulgaria,Melnik,251,41.5166667,23.4
Bulgaria,Mericleri,2233,42.1333333,25.5
Bulgaria,Mezdra,8667,43.15,23.7
Bulgaria,Momcilgrad,6974,41.5333333,25.4166667
Bulgaria,Montana,44982,43.4125,23.225
Bulgaria,Nedelino,4676,41.45,25.0833333
Bulgaria,Nesebar,5864,42.65,27.7333333
Bulgaria,Nikolaevo,2834,43.3166667,25.9833333
Bulgaria,Nikopol,4884,43.7,24.9
Bulgaria,Nova Zagora,24034,42.4833333,26.0166667
Bulgaria,Novi Iskar,13194,42.8,23.35
Bulgaria,Novi Pazar,13017,43.35,27.2
Bulgaria,Obzor,1864,42.8166667,27.8833333
Bulgaria,Omurtag,8858,43.1,26.4166667
Bulgaria,Opaka,3353,43.45,26.1666667
Bulgaria,Orjahovo,4464,43.7333333,23.9666667
Bulgaria,Panagjuriste,18755,42.5,24.1833333
Bulgaria,Pavlikeni,12129,43.2427778,25.3219444
Bulgaria,Pazardzik,76254,42.2,24.3333333
Bulgaria,Pernik,82185,42.6,23.0333333
Bulgaria,Perustica,5248,42.05,24.55
Bulgaria,Pestera,19161,42.0333333,24.3
Bulgaria,Petric,29956,41.4,23.2166667
Bulgaria,Pirdop,7923,42.7,24.1833333
Bulgaria,Plackovci,2098,42.8166667,25.4666667
Bulgaria,Pleven,132542,43.4166667,24.6166667
Bulgaria,Pliska,1115,43.3666667,27.1166667
Bulgaria,Plovdiv,332088,42.15,24.75
Bulgaria,Pomorie,12941,42.55,27.65
Bulgaria,Popovo,18836,43.35,26.2333333
Bulgaria,Pordim,2711,43.3833333,24.85
Bulgaria,Pravec,5071,42.8833333,23.9166667
Bulgaria,Primorsko,1807,42.2666667,27.7666667
Bulgaria,Provadija,14253,43.1833333,27.4333333
Bulgaria,Radnevo,13157,42.3,25.9333333
Bulgaria,Radomir,14971,42.5444444,22.9577778
Bulgaria,Rakitovo,8029,41.9833333,24.0833333
Bulgaria,Rakovski,16009,42.3,24.9666667
Bulgaria,Razgrad,31791,43.5333333,26.5166667
Bulgaria,Razlog,12347,41.8902778,23.4791667
Bulgaria,Rila,2936,42.1333333,23.1333333
Bulgaria,Roman,2329,43.15,23.9166667
Bulgaria,Rudozem,4041,41.4833333,24.85
Bulgaria,Ruse,157519,43.8563889,25.9708333
Bulgaria,Sabla,3603,43.5333333,28.5333333
Bulgaria,Sadovo,2461,42.1333333,24.9333333
Bulgaria,Saedinenie,6363,42.2666667,24.55
Bulgaria,Samokov,26582,42.3333333,23.55
Bulgaria,Sandanski,26282,41.5666667,23.2833333
Bulgaria,Senovo,1481,43.65,26.3666667
Bulgaria,Septemvri,8741,42.2166667,24.1
Bulgaria,Sevlievo,23574,43.0258333,25.1136111
Bulgaria,Silistra,38166,44.1166667,27.2666667
Bulgaria,Simeonovgrad,7509,42.0333333,25.8333333
Bulgaria,Simitli,7275,41.8833333,23.1166667
Bulgaria,Sipka,1520,42.7166667,25.3333333
Bulgaria,Slavjanovo,5160,43.4666667,24.8666667
Bulgaria,Sliven,94252,42.6858333,26.3291667
Bulgaria,Smoljan,31870,41.5852778,24.6919444
Bulgaria,Sofia,1062065,42.6833333,23.3166667
Bulgaria,Sopot,10141,43.0166667,24.4166667
Bulgaria,Sozopol,3548,42.4166667,27.7
Bulgaria,Sredec,9362,42.3488889,27.1941667
Bulgaria,Stara Zagora,137760,42.4327778,25.6419444
Bulgaria,Straldza,5865,42.6,26.6833333
Bulgaria,Strazica,5006,43.2333333,25.9666667
Bulgaria,Strelca,4699,42.5,24.3166667
Bulgaria,Suhindol,2407,43.1916667,25.1811111
Bulgaria,Sumen,85394,43.2766667,26.9291667
Bulgaria,Sungurlare,3441,42.7666667,26.7833333
Bulgaria,Suvorovo,4514,43.3333333,27.6
Bulgaria,Svilengrad,17378,41.7666667,26.2
Bulgaria,Svistov,29762,43.6230556,25.3538889
Bulgaria,Svoge,7093,42.9666667,23.35
Bulgaria,Tervel,7019,43.75,27.4
Bulgaria,Teteven,10697,42.9166667,24.2666667
Bulgaria,Topolovgrad,5824,42.0833333,26.3333333
Bulgaria,Tran,2608,42.8352778,22.6516667
Bulgaria,Trastenik,5627,43.5166667,24.4666667
Bulgaria,Trjavna,10180,42.8666667,25.5
Bulgaria,Trojan,22431,42.8833333,24.7166667
Bulgaria,Tutrakan,9472,44.05,26.6166667
Bulgaria,Tvardica,6434,42.7,25.9
Bulgaria,Ugarcin,2896,43.1,24.4166667
Bulgaria,Varna,307952,43.2166667,27.9166667
Bulgaria,Veliki Preslav,8669,43.1666667,26.8166667
Bulgaria,Velingrad,24129,42.0166667,24.0
Bulgaria,Vetovo,4835,43.7,26.2666667
Bulgaria,Vidin,50315,43.99,22.8725
Bulgaria,Vraca,48995,43.21,23.5625
Bulgaria,Zavet,2979,43.7666667,26.6666667
Bulgaria,Zemen,2145,42.4788889,22.7491667
Bulgaria,Zlatarica,2847,43.05,25.9
Bulgaria,Zlatica,4881,42.7166667,24.1333333
Bulgaria,Zlatograd,7673,41.3833333,25.1
Bahrain,Manama,147097,26.2361111,50.5830556
Bahrain,Sitrah,37690,26.1547222,50.6205556
Burundi,Bubanza,12728,-3.0833333,29.3944444
Burundi,Bujumbura,330539,-3.3761111,29.36
Burundi,Bururi,19740,-3.9511111,29.6166667
Burundi,Cankuzo,6585,-3.2194444,30.5527778
Burundi,Cibitoke,14220,-2.8861111,29.1236111
Burundi,Gitega,23168,-3.425,29.9333333
Burundi,Karuzi,10705,-3.1013889,30.1647222
Burundi,Kayanza,19443,-2.9222222,29.6222222
Burundi,Kirundo,6084,-2.5847222,30.0972222
Burundi,Makamba,19642,-4.1347222,29.805
Burundi,Muramvya,18039,-3.2680556,29.6166667
Burundi,Muyinga,71095,-2.8494444,30.3361111
Burundi,Mwaro,4924,-3.5263889,29.7027778
Burundi,Ngozi,21506,-2.9083333,29.8277778
Burundi,Rumonge,6074,-3.9722222,29.4388889
Burundi,Rutana,20894,-3.9191667,29.9936111
Burundi,Ruyigi,38459,-3.4763889,30.2486111
Benin,Abomey,82158,7.1833333,1.9833333
Benin,Abomey-Calavi,385823,6.45,2.35
Benin,Allada,20094,6.65,2.15
Benin,Aplahoué,19862,6.9333333,1.6833333
Benin,Athiémé,13585,6.5833333,1.6666667
Benin,Banikoara,22487,11.3,2.4333333
Benin,Bassila,23616,9.0166667,1.6666667
Benin,Bembèrèkè,24006,10.2288889,2.6652778
Benin,Bétérou,13108,9.2,2.2666667
Benin,Bohicon,125116,7.2,2.0666667
Benin,Comé,29208,6.4,1.8833333
Benin,Cotonou,690584,6.35,2.4333333
Benin,Cové,38566,7.2333333,2.3
Benin,Djougou,202834,9.705,1.6669444
Benin,Dogbo,41312,6.8166667,1.7833333
Benin,Kandi,109705,11.1341667,2.9386111
Benin,Kétou,22341,7.3666667,2.6
Benin,Lokossa,86987,6.6333333,1.7166667
Benin,Malanville,37117,11.8613889,3.3858333
Benin,Natitingou,80896,10.3066667,1.375
Benin,Nikki,54009,9.9338889,3.2044444
Benin,Ouidah,83506,6.3666667,2.0833333
Benin,Parakou,163759,9.35,2.6166667
Benin,Pobé,32983,6.9666667,2.6833333
Benin,Sakété,30111,6.7166667,2.6666667
Benin,Savalou,30187,7.9333333,1.9666667
Benin,Savé,75973,8.0333333,2.4833333
Benin,Tchaourou,20971,8.8833333,2.6
Bermuda,Hamilton,902,32.2941667,-64.7838889
Bermuda,Saint George,1802,32.3816667,-64.6780556
Bolivia,Abapó,2419,-18.8333333,-63.4666667
Bolivia,Achacachi,8447,-16.05,-68.6833333
Bolivia,Aiquile,8225,-18.1666667,-65.1666667
Bolivia,Arani,3906,-17.5666667,-65.7666667
Bolivia,Ascensión,14431,-15.7,-63.0833333
Bolivia,Atocha,1833,-20.9333333,-66.2333333
Bolivia,Bermejo,28287,-22.65,-64.3666667
Bolivia,Betanzos,4847,-19.5505556,-65.4533333
Bolivia,Boyuibe,3075,-20.4166667,-63.2833333
Bolivia,Buena Vista,4283,-17.45,-63.6666667
Bolivia,Camargo,4715,-20.65,-65.2166667
Bolivia,Camiri,27971,-20.05,-63.5166667
Bolivia,Capinota,5157,-17.7166667,-66.2333333
Bolivia,Caracollo,4708,-17.65,-67.1666667
Bolivia,Caranavi,14915,-15.8166667,-67.55
Bolivia,Challapata,8016,-18.9,-66.7666667
Bolivia,Charagua,3026,-19.8,-63.2166667
Bolivia,Chimoré,5147,-16.9833333,-65.1333333
Bolivia,Chulumani,2953,-16.4,-67.5166667
Bolivia,Cliza,8655,-17.6,-65.9333333
Bolivia,Cobija,26583,-11.0333333,-68.7333333
Bolivia,Cochabamba,900440,-17.3833333,-66.15
Bolivia,Colomi,3923,-17.35,-65.8666667
Bolivia,Colquechaca,1706,-18.6666667,-66.0166667
Bolivia,Colquiri,3934,-17.4166667,-67.1333333
Bolivia,Comarapa,4446,-17.9,-64.4833333
Bolivia,Concepción,6901,-16.4333333,-60.9
Bolivia,Copacabana,4508,-16.15,-69.0833333
Bolivia,Coripata,2107,-16.3,-67.6
Bolivia,Coroico,2361,-16.1833333,-67.7333333
Bolivia,Cotoca,18349,-17.75,-62.9833333
Bolivia,El Carmen,14297,-17.85,-63.2166667
Bolivia,El Torno,15544,-17.9833333,-63.3833333
Bolivia,Entre Ríos,2685,-21.5333333,-64.2
Bolivia,Eucaliptus,2373,-17.5833333,-67.5166667
Bolivia,Guanay,3915,-15.4833333,-67.8833333
Bolivia,Guayaramerín,36010,-10.8,-65.3833333
Bolivia,Huanuni,15492,-18.2666667,-66.85
Bolivia,Irpa Irpa,2968,-17.7166667,-66.2666667
Bolivia,Jorochito,4013,-18.05,-63.4333333
Bolivia,La Bélgica,5504,-17.55,-63.2166667
Bolivia,La Guardia,10259,-17.9,-63.3333333
Bolivia,Lahuachaca,3235,-17.3666667,-67.6666667
Bolivia,La Paz,812819,-16.5,-68.15
Bolivia,Limoncito,3622,-18.0166667,-63.4
Bolivia,Llallagua,28070,-18.4166667,-66.6333333
Bolivia,Los Negros,3046,-17.7333333,-63.4333333
Bolivia,Machacamarca,2045,-18.1666667,-67.0333333
Bolivia,Mairana,4298,-18.1166667,-63.9333333
Bolivia,Mapiri,2598,-15.25,-68.1666667
Bolivia,Mineros,14386,-17.1166667,-63.2333333
Bolivia,Mizque,2911,-17.9333333,-65.3166667
Bolivia,Monteagudo,8290,-19.8166667,-63.9833333
Bolivia,Montero,88623,-17.3333333,-63.25
Bolivia,Oruro,208687,-17.9833333,-67.15
Bolivia,Padilla,2920,-19.3,-64.3
Bolivia,Pailón,9304,-17.65,-62.75
Bolivia,Patacamaya,12261,-17.2333333,-67.9166667
Bolivia,Poopó,1720,-18.3666667,-66.9666667
Bolivia,Portachuelo,11486,-17.35,-63.4
Bolivia,Potosí,141254,-19.5836111,-65.7530556
Bolivia,Puerto Pailas,2675,-17.65,-62.8
Bolivia,Puerto Quijarro,10393,-17.7833333,-57.7666667
Bolivia,Puerto Suárez,12254,-18.95,-57.8
Bolivia,Punata,15195,-17.55,-65.8333333
Bolivia,Quime,2405,-16.9833333,-67.2166667
Bolivia,Reyes,7376,-14.3166667,-67.3833333
Bolivia,Riberalta,74018,-10.9833333,-66.1
Bolivia,Roboré,9883,-18.3333333,-59.75
Bolivia,Rurrenabaque,11750,-14.4666667,-67.5666667
Bolivia,Samaipata,3250,-18.15,-63.8666667
Bolivia,San Borja,19641,-14.8166667,-66.85
Bolivia,San Carlos,4180,-17.4,-63.75
Bolivia,San Ignacio,23570,-16.3666667,-60.95
Bolivia,San Javier,7025,-16.3333333,-62.6333333
Bolivia,San Joaquín,3557,-18.45,-59.55
Bolivia,San José,9749,-17.85,-60.75
Bolivia,San Julian,7706,-17.7833333,-62.8666667
Bolivia,San Lorenzo,2921,-21.4333333,-64.7833333
Bolivia,San Matías,6352,-16.3666667,-58.4
Bolivia,San Miguel,4906,-16.7,-61.0166667
Bolivia,San Pedro,2990,-18.2833333,-59.8166667
Bolivia,San Rafael,2384,-16.75,-60.5666667
